,names,state,males,females,lat,lng,total_deaths
0,"Abbeville, Louisiana",LA,1,0,29.9746502,-92.1342921,1
1,"Algiers, Louisiana",LA,2,0,29.9510514,-90.0810887765191,2
2,"Ascension Parish, Louisiana",LA,1,0,30.20465845,-90.88963010654159,1
3,"Avondale, Louisiana",LA,3,0,29.9129834,-90.2036869,3
4,"Baker, Louisiana",LA,1,0,30.5882429,-91.168163,1
5,"Baton Rouge, Louisiana",LA,46,8,30.4507462,-91.154551,54
6,"Bayou Vista, Louisiana",LA,1,1,30.2813059,-89.8175651,2
7,"Blanchard, Louisiana",LA,1,0,32.580983,-93.8926813,1
8,"Bossier City, Louisiana",LA,3,2,32.5064115,-93.65183813047341,5
9,"Bossier City , Louisiana",LA,1,0,32.5064115,-93.65183813047341,1
10,"Caddo Parish, Louisiana",LA,1,0,32.60755,-93.90238917826521,1
11,"Calcasieu Parish, Louisiana",LA,1,0,30.26537195,-93.3691697243836,1
12,"Carencro, Louisiana",LA,2,0,30.317144,-92.0490096,2
13,"Chalmette, Louisiana",LA,1,0,29.9427037,-89.9634017,1
14,"Charenton, Louisiana",LA,2,0,29.8815936,-91.5251127,2
15,"Covington, Louisiana",LA,1,0,30.4754702,-90.1009108,1
16,"Creston, Louisiana",LA,1,0,31.9759941,-93.049884,1
17,"Crowley, Louisiana",LA,1,0,30.2140928,-92.3745761,1
18,"DeRidder, Louisiana",LA,1,0,30.8463055,-93.2890528,1
19,"Denham Springs, Louisiana",LA,2,0,30.4868564,-90.9562125,2
20,"Donaldsonville, Louisiana",LA,2,0,30.1010324,-90.9928774,2
21,"Duson, Louisiana",LA,1,0,30.2357577,-92.1854035,1
22,"East Baton Rouge, Louisiana",LA,1,0,30.4143987,-91.1774318,1
23,"Ebarb, Louisiana",LA,1,0,31.635777,-93.648603,1
24,"Edgard, Louisiana",LA,1,0,30.0432578,-90.5600869,1
25,"Ferriday, Louisiana",LA,1,0,31.6301664,-91.5545649,1
26,"Garyville, Louisiana",LA,1,0,30.056035,-90.6192554,1
27,"Geismar, Louisiana",LA,1,0,30.2043633,-91.0226013,1
28,"Gentilly, Louisiana",LA,4,0,30.0156248,-90.0518356,4
29,"Gonzales, Louisiana",LA,1,0,30.2385294,-90.9200987,1
30,"Gray, Louisiana",LA,1,0,29.6977108,-90.786481,1
31,"Hammond, Louisiana",LA,3,1,30.5043583,-90.4611995,4
32,"Harahan, Louisiana",LA,1,0,29.9404826,-90.2031313,1
33,"Harvey, Louisiana",LA,10,0,29.9035387,-90.0772944,10
34,"Houma, Louisiana",LA,9,1,29.5957696,-90.7195348,10
35,"Jamestown, Louisiana",LA,1,0,32.3440452,-93.2118341,1
36,"Jeanerette, Louisiana",LA,1,0,29.9110378,-91.6634484,1
37,"Jefferson, Louisiana",LA,2,0,29.8502657,-90.1293894,2
38,"Jena, Louisiana",LA,1,0,31.6832271,-92.1337448,1
39,"Kenner, Louisiana",LA,7,0,29.9940924,-90.2417434,7
40,"Kentwood, Louisiana",LA,1,1,30.9382358,-90.5089843,2
41,"Krotz Springs, Louisiana",LA,1,0,30.5368592,-91.7528931,1
42,"LaFayette, Louisiana",LA,2,1,30.2240897,-92.0198427,3
43,"LaPlace, Louisiana",LA,5,1,30.0665907,-90.4800848,6
44,"Lafayette, Louisiana",LA,5,0,30.2240897,-92.0198427,5
45,"Lafayette Parish, Louisiana",LA,1,1,30.208284,-92.11207429099359,2
46,"Lafourche Parish, Louisiana",LA,1,0,29.50317955,-90.36353872460859,1
47,"Lake Charles, Louisiana",LA,5,0,30.2265949,-93.2173759,5
48,"Larose, Louisiana",LA,1,1,29.572438,-90.3817483,2
49,"Livingston Parish, Louisiana",LA,1,0,30.412795,-90.7410590657223,1
50,"Loranger, Louisiana",LA,1,1,30.6357439,-90.3981441,2
51,"Luling, Louisiana",LA,1,0,29.9321498,-90.3664695,1
52,"Mansfield, Louisiana",LA,1,0,32.0376629,-93.7001819,1
53,"Marrero, Louisiana",LA,9,1,29.8993723,-90.1003506,10
54,"Metairie, Louisiana",LA,6,3,30.00135175,-90.1767313475544,9
55,"Monroe, Louisiana",LA,2,0,32.5093109,-92.1193012,2
56,"Morgan City, Louisiana",LA,1,0,29.6993748,-91.20677,1
57,"Nairn, Louisiana",LA,1,0,29.4279955,-89.6108947,1
58,"New Orleans, Louisiana",LA,146,17,29.9499323,-90.0701156,163
59,"New Orleans , Louisiana",LA,1,0,29.9499323,-90.0701156,1
60,"Patterson, Louisiana",LA,1,1,29.6932642,-91.3020502,2
61,"Port Allen, Louisiana",LA,2,0,30.4521351,-91.2101081,2
62,"Prairieville, Louisiana",LA,2,0,30.3029721,-90.9720451,2
63,"Ragley, Louisiana",LA,1,0,30.512699,-93.2323813,1
64,"Reserve, Louisiana",LA,5,0,30.0538131,-90.5517534,5
65,"River Ridge, Louisiana",LA,3,0,29.9602043,-90.2156316,3
66,"Ruston, Louisiana",LA,1,0,32.5269104,-92.6463257,1
67,"Shreveport, Louisiana",LA,13,0,32.5221828,-93.7651944,13
68,"Slidell, Louisiana",LA,6,0,30.2751945,-89.7811745,6
69,"Sorrento, Louisiana",LA,1,0,30.1843642,-90.8592632,1
70,"St. Bernard, Louisiana",LA,1,0,29.8779823,-89.5969002,1
71,"St. Joseph, Louisiana",LA,2,0,31.9184926,-91.2334451,2
72,"St. Rose, Louisiana",LA,3,0,29.9468716,-90.3231349,3
73,"St. Tammany Parish, Louisiana",LA,1,0,30.4256963,-89.96205483993108,1
74,"Terrebonne, Louisiana",LA,1,0,29.4257758,-90.5674867,1
75,"Terrytown, Louisiana",LA,1,0,29.910205,-90.0325709,1
76,"Thibodaux, Louisiana",LA,2,0,29.7957633,-90.822871,2
77,"Varnado, Louisiana",LA,2,0,30.8937963,-89.8295203,2
78,"Ville Platte, Louisiana",LA,1,0,30.6879749,-92.2715157,1
79,"Violet, Louisiana",LA,1,0,29.8957605,-89.8978439,1
80,"Waggaman, Louisiana",LA,1,0,29.9185388,-90.2109093,1
81,"West Monroe, Louisiana",LA,1,1,32.5184775,-92.1476353,2
82,"Winnfield, Louisiana",LA,1,0,31.9254413,-92.6395932,1
83,"Winnsboro, Louisiana",LA,1,0,32.1632079,-91.720681,1
84,"Bridge City, Louisiana",LA,0,1,29.9332605,-90.1700748,1
85,"Franklinton, Louisiana",LA,0,1,30.8471283,-90.153141,1
86,"Jonesville, Louisiana",LA,0,1,31.6265595,-91.8181828,1
87,"Longville, Louisiana",LA,0,1,30.6051979,-93.2318269,1
88,"Many, Louisiana",LA,0,1,31.5687848,-93.4840645,1
89,"New Iberia, Louisiana",LA,0,1,30.0035365,-91.8187285,1
90,"Ponchatoula, Louisiana",LA,0,1,30.4388041,-90.4414762,1
91,"Slaughter, Louisiana",LA,0,1,30.7174063,-91.1414958,1
92,"St Joseph, Louisiana",LA,0,1,31.9184926,-91.2334451,1
93,"Abbeville, South Carolina",SC,2,0,34.1781719,-82.3790148,2
94,"Abbeville County, South Carolina",SC,1,0,34.2492945,-82.4732576974835,1
95,"Anderson, South Carolina",SC,4,2,34.5068601,-82.6506264,6
96,"Anderson County, South Carolina",SC,1,1,34.5153635,-82.6527126435937,2
97,"Beaufort, South Carolina",SC,2,0,32.3850708,-80.6923169,2
98,"Beech Island, South Carolina",SC,1,0,33.4273614,-81.8909473,1
99,"Belton, South Carolina",SC,2,1,34.5228881,-82.4942948,3
100,"Bennettsville, South Carolina",SC,3,0,34.6173803,-79.6847814,3
101,"Bishopville, South Carolina",SC,1,0,34.2182107,-80.2484056,1
102,"Blackville, South Carolina",SC,1,0,33.3579297,-81.2706606,1
103,"Burton, South Carolina",SC,1,0,32.4357843,-80.7242883,1
104,"Charleston, South Carolina",SC,8,0,32.7876012,-79.9402728,8
105,"Charleston County, South Carolina",SC,1,2,32.97595765,-79.5608142364772,3
106,"Chester, South Carolina",SC,2,0,34.5751447,-80.9019237,2
107,"Chester County, South Carolina",SC,1,0,34.6830445,-81.1656734367261,1
108,"Chesterfield, South Carolina",SC,1,0,32.7579551,-79.9914803,1
109,"Chesterfield County, South Carolina",SC,1,0,34.5934105,-80.0974157026473,1
110,"Colleton County, South Carolina",SC,2,0,32.7863418,-80.6535523313695,2
111,"Columbia, South Carolina",SC,20,7,34.0872775,-80.98114973525502,27
112,"Conway, South Carolina",SC,4,1,33.8360035,-79.0478143,5
113,"Conway , South Carolina",SC,1,0,33.8360035,-79.0478143,1
114,"Cottageville, South Carolina",SC,1,0,32.936838,-80.480935,1
115,"Dacusville, South Carolina",SC,1,1,34.9353949,-82.5587384,2
116,"Darlington, South Carolina",SC,1,0,34.2998762,-79.8761741,1
117,"Donalds, South Carolina",SC,2,0,34.3770591,-82.3473448,2
118,"Dorchester County, South Carolina",SC,1,1,33.07602025,-80.4273289918359,2
119,"Edgefield County, South Carolina",SC,1,0,33.7543985,-81.9496810525656,1
120,"Florence, South Carolina",SC,2,1,33.7846102,-79.4488454,3
121,"Fort Hill, South Carolina",SC,2,0,34.407373,-80.6475769,2
122,"Fountain Inn, South Carolina",SC,1,2,34.6890095,-82.1956679,3
123,"Friendship, South Carolina",SC,1,0,34.4984463,-82.3809556,1
124,"Gaffney, South Carolina",SC,2,1,35.0717945,-81.6498195,3
125,"Goose Creek, South Carolina",SC,2,1,33.0126515,-80.0327595151383,3
126,"Graniteville, South Carolina",SC,2,0,33.5637483,-81.8078887,2
127,"Greeleyville, South Carolina",SC,1,0,33.5809988,-79.9889654,1
128,"Greenville, South Carolina",SC,11,2,34.8512316,-82.3985105,13
129,"Greenville County, South Carolina",SC,1,1,34.8500365,-82.3485514374409,2
130,"Greenwood, South Carolina",SC,4,2,34.0420737,-81.9594608,6
131,"Greenwood County, South Carolina",SC,5,3,34.182129,-82.07935190959691,8
132,"Hanahan, South Carolina",SC,1,0,32.9138914,-80.0088359,1
133,"Hilton Head, South Carolina",SC,1,1,32.193817,-80.7381637,2
134,"Honea Path, South Carolina",SC,1,0,34.4465018,-82.3915122,1
135,"Irmo, South Carolina",SC,1,0,34.0859829,-81.1831513,1
136,"Jonesville, South Carolina",SC,1,1,32.7362873,-80.8159402,2
137,"Kershaw, South Carolina",SC,2,0,34.5518201,-80.5836836,2
138,"Kiawah Island, South Carolina",SC,1,1,32.6082373,-80.0848166,2
139,"Lamar, South Carolina",SC,1,0,34.1687661,-80.062568,1
140,"Lancaster, South Carolina",SC,3,2,34.630155,-80.4333021,5
141,"Latta, South Carolina",SC,1,0,34.3371047,-79.4311616,1
142,"Lexington, South Carolina",SC,3,0,33.9850175,-81.2234768415058,3
143,"Lexington County, South Carolina",SC,1,0,33.9250165,-81.28323148921699,1
144,"Loris, South Carolina",SC,1,0,34.0562812,-78.8903044,1
145,"Marion, South Carolina",SC,2,0,34.178216,-79.4006069,2
146,"Moncks Corner, South Carolina",SC,3,0,33.1960027,-80.0131374,3
147,"Mount Pleasant, South Carolina",SC,1,0,32.831845,-79.8858415819073,1
148,"Mt. Pleasant, South Carolina",SC,1,0,32.7940651,-79.8625851,1
149,"Myrtle Beach, South Carolina",SC,1,0,33.6955167,-78.8817622,1
150,"North Charleston, South Carolina",SC,10,1,32.939636,-80.0982102221675,11
151,"Orangeberg, South Carolina",SC,1,0,33.4273582,-80.2807457,1
152,"Orangeburg, South Carolina",SC,2,0,33.4273582,-80.2807457,2
153,"Pineville, South Carolina",SC,1,0,33.4282228,-80.0292462,1
154,"Ravenel, South Carolina",SC,1,0,32.7632321,-80.2500986,1
155,"Richland County, South Carolina",SC,5,2,33.8071004,-80.6372094,7
156,"Ridgeland, South Carolina",SC,1,0,32.4807435,-80.980386,1
157,"Ridgeville, South Carolina",SC,1,0,33.095723,-80.3153738,1
158,"Rock Hill, South Carolina",SC,4,1,34.9248667,-81.0250784,5
159,"Saluda, South Carolina",SC,1,0,34.074864,-81.4841699,1
160,"Saluda County, South Carolina",SC,1,1,34.0005725,-81.74923910080359,2
161,"Seneca, South Carolina",SC,1,1,34.6865321,-82.9527288,2
162,"Socastee, South Carolina",SC,1,1,33.683504,-78.9983676,2
163,"Spartanburg, South Carolina",SC,4,0,34.9498007,-81.9320157,4
164,"Spartanburg County, South Carolina",SC,1,0,34.888851,-81.9803047128018,1
165,"St George, South Carolina",SC,1,0,33.1859958,-80.5756534,1
166,"Sumter, South Carolina",SC,4,1,33.9679376,-79.9413592,5
167,"Turbeville, South Carolina",SC,1,0,33.8907158,-80.0184063,1
168,"Walterboro, South Carolina",SC,2,0,32.9051704,-80.6667688,2
169,"Wellford, South Carolina",SC,1,0,34.9509521,-82.1059416,1
170,"West Columbia, South Carolina",SC,1,1,33.984518,-81.09820720802921,2
171,"Westminster, South Carolina",SC,1,0,34.6648197,-83.0965425,1
172,"Williamston, South Carolina",SC,1,0,34.6184471,-82.4779053,1
173,"Woodruff, South Carolina",SC,1,0,34.7395701,-82.0370466,1
174,"York, South Carolina",SC,1,0,34.9943021,-81.2420175,1
175,"Andrews, South Carolina",SC,0,1,33.451278,-79.5608971,1
176,"Garden City, South Carolina",SC,0,1,33.5929472,-79.0086464,1
177,"Hartsville, South Carolina",SC,0,1,34.3740431,-80.0734005,1
178,"Hodges, South Carolina",SC,0,1,34.2875885,-82.2479312935603,1
179,"Horry County, South Carolina",SC,0,1,33.93569585,-78.97702634154571,1
180,"Iva, South Carolina",SC,0,2,34.3064967,-82.663743,2
181,"Johns Island, South Carolina",SC,0,1,32.7024009,-80.0481488,1
182,"Lancaster County, South Carolina",SC,0,1,34.76491,-80.69615487109691,1
183,"Little River, South Carolina",SC,0,1,33.8732279,-78.6141798,1
184,"Santee, South Carolina",SC,0,1,33.4751634,-80.4864764,1
185,"St. George, South Carolina",SC,0,1,33.1859958,-80.5756534,1
186,"Summerville, South Carolina",SC,0,1,32.9960965,-80.2021633056339,1
187,"Taylors, South Carolina",SC,0,1,34.9203946,-82.2962269,1
188,"Travelers Rest, South Carolina",SC,0,1,34.9676167,-82.4434548,1
189,"Wagener, South Carolina",SC,0,1,33.6523712,-81.3612142,1
190,"Aberdeen, Maryland",MD,1,0,39.5095556,-76.1641197,1
191,"Annapolis, Maryland",MD,4,0,38.9786401,-76.492786,4
192,"Aspen Hill, Maryland",MD,1,0,39.0794975,-77.0735251,1
193,"Baltimore, Maryland",MD,178,22,39.2909295,-76.6097684,200
194,"Baltimore County, Maryland",MD,1,0,39.2846027,-76.62047203423779,1
195,"Bel Air, Maryland",MD,1,0,39.5357481,-76.3484809,1
196,"Bowie, Maryland",MD,1,0,39.0067768,-76.7791365,1
197,"Brandywine, Maryland",MD,1,0,38.6967833,-76.8477485,1
198,"Calverton, Maryland",MD,1,0,39.0576091,-76.9358082,1
199,"Capitol Heights, Maryland",MD,3,0,38.8853963,-76.9159441,3
200,"Clinton, Maryland",MD,2,1,38.7651145,-76.8983059,3
201,"College Park, Maryland",MD,3,0,38.980666,-76.9369189,3
202,"Columbia, Maryland",MD,1,1,39.2151996,-76.8546725,2
203,"Delmar, Maryland",MD,1,0,38.4559497,-75.577425,1
204,"District Heights, Maryland",MD,2,0,38.8576128,-76.8894171,2
205,"Dundalk, Maryland",MD,1,1,39.2574114,-76.5236745,2
206,"Edgewood, Maryland",MD,2,0,39.4187194,-76.2944016,2
207,"Essex, Maryland",MD,1,0,39.3075143,-76.4788202,1
208,"Fairmount Heights, Maryland",MD,1,0,38.9009452,-76.9155291,1
209,"Forestville, Maryland",MD,5,0,38.8451131,-76.8749722,5
210,"Fort Washington, Maryland",MD,2,0,38.7073379,-77.0230314,2
211,"Frederick, Maryland",MD,1,0,39.414443,-77.4105783,1
212,"Frostburg, Maryland",MD,1,0,39.6581425,-78.928357,1
213,"Ft Washington, Maryland",MD,1,0,38.7073379,-77.0230314,1
214,"Gaithersburg, Maryland",MD,1,0,39.1434406,-77.2013705,1
215,"Germantown, Maryland",MD,2,2,39.1731621,-77.2716502,4
216,"Glen Burnie, Maryland",MD,6,1,39.1626298,-76.6250756,7
217,"Glenarden, Maryland",MD,1,0,38.9292782,-76.8616387,1
218,"Grasonville, Maryland",MD,1,0,38.9581686,-76.2102288,1
219,"Hagerstown, Maryland",MD,2,0,39.6419219,-77.7202641,2
220,"Hampstead, Maryland",MD,1,0,39.6048252,-76.8499775,1
221,"Harmans, Maryland",MD,1,0,39.1573304,-76.6966356,1
222,"Havre de Grace, Maryland",MD,1,0,39.5489964,-76.0914718,1
223,"Hickory, Maryland",MD,1,0,39.5787178,-76.3452374,1
224,"Hillcrest Heights, Maryland",MD,4,0,38.8328909,-76.9594189,4
225,"La Plata, Maryland",MD,1,0,38.5292877,-76.9752514,1
226,"Landover, Maryland",MD,2,0,38.9340002,-76.8966397,2
227,"Lansdowne, Maryland",MD,1,0,39.2451071,-76.660524,1
228,"Largo, Maryland",MD,1,0,38.8823465,-76.8286242874533,1
229,"Laurel, Maryland",MD,1,2,39.0992752,-76.8483061,3
230,"Lewisdale, Maryland",MD,1,0,38.9734438,-76.9738644,1
231,"Middle River, Maryland",MD,1,0,39.3342745,-76.4394057,1
232,"Millersville, Maryland",MD,1,0,39.0595542,-76.6480219,1
233,"New Market, Maryland",MD,2,1,39.3826031,-77.2694278,3
234,"North East, Maryland",MD,1,0,39.6001132,-75.9413327,1
235,"Ocean City, Maryland",MD,1,0,38.40678,-75.0618486,1
236,"Odenton, Maryland",MD,1,0,39.0837774,-76.7000224,1
237,"Oxon Hill, Maryland",MD,2,0,38.8035961,-76.9896573,2
238,"Port Deposit, Maryland",MD,2,0,39.6048327,-76.1152289,2
239,"Prince Frederick, Maryland",MD,2,0,38.5403996,-76.5844017,2
240,"Prince George's County, Maryland",MD,3,0,38.803929,-76.8518695,3
241,"Princess Anne, Maryland",MD,2,0,38.2028993,-75.692427,2
242,"Queen Anne's County, Maryland",MD,1,0,39.0326935,-76.03965855642879,1
243,"Rawlings, Maryland",MD,1,0,39.5345348,-78.8833562,1
244,"Reservoir Hill, Maryland",MD,1,0,39.3137013,-76.633292,1
245,"Rockville, Maryland",MD,1,0,39.0840054,-77.1527573,1
246,"Rodgers Forge, Maryland",MD,1,0,39.38056195,-76.6121453334987,1
247,"Rosedale, Maryland",MD,2,0,39.3201074,-76.5155191,2
248,"Salisbury, Maryland",MD,4,0,38.3662114,-75.6008881,4
249,"Seat Pleasant, Maryland",MD,2,0,38.8962231,-76.9066399,2
250,"Severn, Maryland",MD,1,0,39.1370528,-76.6983022,1
251,"Silver Spring, Maryland",MD,1,0,39.00884145,-77.0205440580873,1
252,"Spauldings, Maryland",MD,1,0,38.8534461,-76.9066397,1
253,"St. Mary's County, Maryland",MD,1,0,38.20161245,-76.5590579405692,1
254,"Suitland, Maryland",MD,1,0,38.848724,-76.9238625,1
255,"Takoma Park, Maryland",MD,2,0,38.9778882,-77.0074765,2
256,"Taneytown, Maryland",MD,1,0,39.6578773,-77.1744279,1
257,"Temple Hills, Maryland",MD,2,0,38.8140024,-76.9455296,2
258,"Timonium, Maryland",MD,1,0,39.4368436,-76.6187044,1
259,"Towson, Maryland",MD,1,0,39.4018565,-76.6023686,1
260,"Upper Marlboro, Maryland",MD,1,0,38.8162654,-76.7518462,1
261,"Waldorf, Maryland",MD,1,1,38.63501915,-76.9063116959882,2
262,"West Baltimore, Maryland",MD,1,0,39.2933208,-76.6531881,1
263,"Westminster, Maryland",MD,1,0,39.5752639,-76.9959277,1
264,"White Marsh, Maryland",MD,2,0,39.3837187,-76.4321837,2
265,"Williamsport, Maryland",MD,1,0,39.6006523,-77.8205508,1
266,"Windsor Mill, Maryland",MD,1,0,39.3328839,-76.7594179,1
267,"Elkton, Maryland",MD,0,1,39.6065545,-75.8158002333333,1
268,"Frederick County, Maryland",MD,0,1,39.4698212,-77.36798295505298,1
269,"Parkville, Maryland",MD,0,1,39.3773292,-76.5396875,1
270,"Aberdeen, North Carolina",NC,3,0,35.131547,-79.4294789,3
271,"Alamance County, North Carolina",NC,1,0,36.0431402,-79.4075384,1
272,"Albemarle, North Carolina",NC,1,0,35.3501426,-80.2000578,1
273,"Angier, North Carolina",NC,2,0,35.5071045,-78.7391813,2
274,"Anson County, North Carolina",NC,1,0,34.9705848,-80.0958187,1
275,"Arden, North Carolina",NC,1,1,35.4662258,-82.51651,2
276,"Asheville, North Carolina",NC,11,3,35.6009498,-82.5540161,14
277,"Beaufort, North Carolina",NC,1,0,34.7182174,-76.6638186,1
278,"Bessemer City, North Carolina",NC,1,0,35.2848579,-81.28397,1
279,"Beulaville, North Carolina",NC,1,0,34.9237763,-77.7738667,1
280,"Boger City, North Carolina",NC,1,0,35.4806895,-81.2134133,1
281,"Burnsville, North Carolina",NC,1,0,35.9173358,-82.300961,1
282,"Cabarrus County, North Carolina",NC,1,0,35.3568086,-80.4277412,1
283,"Caldwell County, North Carolina",NC,2,0,35.687914,-81.2020823560741,2
284,"Cameron, North Carolina",NC,1,0,35.3268226,-79.255303,1
285,"Candler, North Carolina",NC,2,0,35.536498,-82.692907,2
286,"Carolina Beach, North Carolina",NC,1,0,34.0351727,-77.8935966,1
287,"Carrboro, North Carolina",NC,1,0,35.9101438,-79.0752895,1
288,"Catawba, North Carolina",NC,1,1,35.5868015,-80.9594203,2
289,"Chadbourn, North Carolina",NC,1,0,34.3221129,-78.8269664,1
290,"Charleston, North Carolina",NC,2,1,36.1201561,-77.3755239,3
291,"Charlotte, North Carolina",NC,47,5,35.3314525,-80.9398554230769,52
292,"Charlotte-Mecklenburg, North Carolina",NC,2,0,35.2270869,-80.8431268,2
293,"Clayton, North Carolina",NC,1,0,35.650711,-78.4563914,1
294,"Clemmons, North Carolina",NC,1,1,36.0215258,-80.3819984,2
295,"Cleveland, North Carolina",NC,2,0,35.330702,-81.5507523,2
296,"Clinton, North Carolina",NC,1,0,34.9979453,-78.3233325,1
297,"Colington, North Carolina",NC,2,0,36.0079445,-75.7015657,2
298,"Concord, North Carolina",NC,5,1,35.4087517,-80.579511,6
299,"Conway, North Carolina",NC,1,0,36.4370974,-77.2288563,1
300,"Dobson, North Carolina",NC,1,0,36.3956891,-80.722567,1
301,"Durham, North Carolina",NC,28,2,35.9940329,-78.898619,30
302,"Eden, North Carolina",NC,1,0,36.4884715,-79.7667026,1
303,"Elizabeth City, North Carolina",NC,2,0,36.2946008,-76.2510461,2
304,"Erwin, North Carolina",NC,1,1,35.3268292,-78.676128,2
305,"Fairmont, North Carolina",NC,3,0,34.4968311,-79.114202,3
306,"Fayetteville, North Carolina",NC,27,6,35.0529931,-78.8787058,33
307,"Forest Hills, North Carolina",NC,1,0,35.6809727,-80.4753371,1
308,"Fort Bragg, North Carolina",NC,1,0,35.15383385,-79.13364761962099,1
309,"Fuquay-Varina, North Carolina",NC,1,0,35.5843235,-78.8000128,1
310,"Garner, North Carolina",NC,2,3,35.7112642,-78.6141709,5
311,"Garysburg, North Carolina",NC,1,0,36.450985,-77.5588661,1
312,"Gastonia, North Carolina",NC,2,1,35.262082,-81.1873005,3
313,"Gibsonville, North Carolina",NC,1,0,36.105691,-79.5422462,1
314,"Goldsboro, North Carolina",NC,5,0,35.3848841,-77.9927651,5
315,"Graham, North Carolina",NC,1,0,36.0690258,-79.4005756,1
316,"Greensboro, North Carolina",NC,14,7,36.0726355,-79.7919754,21
317,"Greenville, North Carolina",NC,5,1,35.612661,-77.3663538,6
318,"Harrisburg, North Carolina",NC,3,0,35.3237528,-80.6559017,3
319,"Henderson, North Carolina",NC,3,1,36.3295905,-78.3991638,4
320,"Hendersonville, North Carolina",NC,2,2,35.3187279,-82.4609528,4
321,"Hickory, North Carolina",NC,2,0,35.7331895,-81.3412006,2
322,"High Point, North Carolina",NC,2,1,35.9556924,-80.0053176,3
323,"Hoke County, North Carolina",NC,1,0,35.0271856,-79.2432785,1
324,"Hubert, North Carolina",NC,1,0,34.7137729,-77.2452328,1
325,"Jacksonville, North Carolina",NC,3,1,34.7540524,-77.4302415,4
326,"Johnston County, North Carolina",NC,1,0,35.5285816,-78.3768021,1
327,"Kingston, North Carolina",NC,1,0,35.9577741,-78.54359804876941,1
328,"Kinston, North Carolina",NC,3,0,35.2626635,-77.5816353,3
329,"Knightdale, North Carolina",NC,1,1,35.7878975,-78.4822938,2
330,"Laurinburg, North Carolina",NC,1,1,34.7740495,-79.4628248,2
331,"Lee County, North Carolina",NC,1,0,35.4579333,-79.0529768,1
332,"Leicester, North Carolina",NC,2,1,35.6551074,-82.6962438,3
333,"Lenoir County, North Carolina",NC,2,1,35.2590371,-77.6484879,3
334,"Lewisville, North Carolina",NC,1,0,36.0970819,-80.4192216,1
335,"Lexington, North Carolina",NC,1,0,35.8240265,-80.2533838,1
336,"Lillington, North Carolina",NC,2,0,35.399327,-78.8158528,2
337,"Louisburg, North Carolina",NC,1,2,36.0990393,-78.301106,3
338,"Lumberton, North Carolina",NC,11,3,34.6182199,-79.0086425,14
339,"Manteo, North Carolina",NC,1,0,35.9082257,-75.6757303,1
340,"Marion, North Carolina",NC,3,0,35.6840131,-82.0092745,3
341,"Matthews, North Carolina",NC,2,0,35.1168131,-80.7236804,2
342,"Maxton, North Carolina",NC,1,0,34.7351615,-79.3489317,1
343,"Mollie, North Carolina",NC,1,0,34.151281,-78.7405736,1
344,"Monroe, North Carolina",NC,2,0,35.0734275,-80.5654443615441,2
345,"Mooresboro, North Carolina",NC,1,0,35.2987362,-81.6989863,1
346,"Morganton, North Carolina",NC,1,0,35.7454071,-81.6848188,1
347,"Mount Holly, North Carolina",NC,2,0,35.2981943,-81.0159081,2
348,"Mt. Olive, North Carolina",NC,1,1,35.1965532,-78.0663788,2
349,"Nashville, North Carolina",NC,2,0,35.974598,-77.9655406,2
350,"New Bern, North Carolina",NC,1,0,35.1084931,-77.0441143,1
351,"New Hanover County, North Carolina",NC,1,0,34.224045,-77.8854204376062,1
352,"North Wilkesboro, North Carolina",NC,1,0,36.1584651,-81.1475841,1
353,"Northampton, North Carolina",NC,1,0,36.4168078,-77.3642227,1
354,"Oxford, North Carolina",NC,1,0,34.9704419,-78.9453056,1
355,"Parkton, North Carolina",NC,1,0,34.9026635,-79.0116971,1
356,"Pfafftown, North Carolina",NC,1,0,36.1526379,-80.3622753,1
357,"Pikeville, North Carolina",NC,1,0,35.497105,-77.9819312,1
358,"Pinetown, North Carolina",NC,1,0,35.6104408,-76.8613327,1
359,"Raeford, North Carolina",NC,1,0,34.9809996,-79.2241998,1
360,"Raleigh, North Carolina",NC,9,2,35.7803888,-78.6390587,11
361,"Reaford, North Carolina",NC,1,0,36.086735,-80.375444,1
362,"Reidsville, North Carolina",NC,1,0,36.3548586,-79.6644748,1
363,"Roanoke Island, North Carolina",NC,1,0,35.8826713,-75.6554512,1
364,"Roanoke Rapids, North Carolina",NC,1,0,36.4615395,-77.6541464,1
365,"Robeson County, North Carolina",NC,1,0,34.6485079,-79.0954942,1
366,"Rockingham, North Carolina",NC,1,0,36.3926798,-79.744144,1
367,"Rocky Mount, North Carolina",NC,1,2,35.9382104,-77.7905341,3
368,"Rural Hall, North Carolina",NC,1,0,36.2404158,-80.2933838,1
369,"Rutherford County, North Carolina",NC,1,0,35.393858,-81.9129139976011,1
370,"Rutherfordton, North Carolina",NC,1,1,35.3692877,-81.9567716,2
371,"Salisbury, North Carolina",NC,2,0,35.6709727,-80.4742261,2
372,"Sanford, North Carolina",NC,7,0,35.4798757,-79.1802994,7
373,"Scotland County, North Carolina",NC,1,1,34.834591,-79.48619214313379,2
374,"Shannon, North Carolina",NC,1,0,34.8479415,-79.1369782,1
375,"Shelby, North Carolina",NC,1,1,35.2923513,-81.5356463,2
376,"Smithfield, North Carolina",NC,2,0,35.5085717,-78.3392929,2
377,"Southern Pines, North Carolina",NC,4,0,35.1740471,-79.3922539,4
378,"Sparta, North Carolina",NC,1,0,36.5054071,-81.1209189,1
379,"Spindale, North Carolina",NC,1,0,35.3601212,-81.929271,1
380,"Steele Creek, North Carolina",NC,1,0,35.1134161,-80.9522949,1
381,"Swansboro, North Carolina",NC,1,0,34.6876621,-77.1191166,1
382,"Swift Creek, North Carolina",NC,1,0,35.5031037,-78.3794196,1
383,"Tabor, North Carolina",NC,1,0,36.1190265,-80.3194962,1
384,"Tabor City, North Carolina",NC,4,1,34.1487804,-78.8766916,5
385,"Thomasville, North Carolina",NC,1,0,35.8826369,-80.0819879,1
386,"Transylvania County, North Carolina",NC,1,0,35.1434499,-82.6428035,1
387,"Trent Woods, North Carolina",NC,1,0,35.0821039,-77.0863383,1
388,"Turkey, North Carolina",NC,1,1,34.9923888,-78.183049,2
389,"Union County, North Carolina",NC,1,0,34.9795158,-80.5128209,1
390,"Vass, North Carolina",NC,1,0,35.2562684,-79.2822491,1
391,"Wadesboro, North Carolina",NC,2,0,34.9682097,-80.0767266,2
392,"Wake County, North Carolina",NC,2,1,35.8243208,-78.3146199,3
393,"Wake Forest, North Carolina",NC,1,0,35.9798734,-78.5097228,1
394,"Walstonburg, North Carolina",NC,1,0,35.5946041,-77.6969203,1
395,"Warrenton, North Carolina",NC,1,0,36.3984804,-78.1552706,1
396,"Wendell, North Carolina",NC,1,0,35.780987,-78.3697213,1
397,"Whiteville, North Carolina",NC,1,1,34.3387802,-78.7030721,2
398,"Wilmington, North Carolina",NC,8,0,34.2257282,-77.9447107,8
399,"Wilson, North Carolina",NC,2,0,35.7212689,-77.9155395,2
400,"Wilson County, North Carolina",NC,1,0,35.7059114,-77.9175714,1
401,"Wingate, North Carolina",NC,2,0,34.9843176,-80.4492319,2
402,"Winston-Salem, North Carolina",NC,14,2,36.0998596,-80.244216,16
403,"Wrightsboro, North Carolina",NC,1,0,34.2885025,-77.9210983,1
404,"salisbury, North Carolina",NC,1,0,35.6709727,-80.4742261,1
405,"Alexander, North Carolina",NC,0,1,35.924738,-81.1716315,1
406,"Anson county, North Carolina",NC,0,1,34.9705848,-80.0958187,1
407,"Asheboro, North Carolina",NC,0,1,35.7079146,-79.8136446,1
408,"Cherokee, North Carolina",NC,0,1,35.2470348,-83.7031269,1
409,"Chester, North Carolina",NC,0,1,35.8016663,-78.6598232,1
410,"Cumberland County, North Carolina",NC,0,1,35.0461723,-78.8394255,1
411,"Edgecombe County, North Carolina",NC,0,1,35.8607136,-77.3862562,1
412,"Halifax County, North Carolina",NC,0,1,36.2494056,-77.66834,1
413,"Haywood County, North Carolina",NC,0,1,35.5456202,-82.9907823,1
414,"Lincolnton, North Carolina",NC,0,1,35.473745,-81.2545251,1
415,"Marshall, North Carolina",NC,0,2,35.7973284,-82.6840252,2
416,"Nash County, North Carolina",NC,0,1,35.913166,-77.57809644791669,1
417,"Randolph County , North Carolina",NC,0,1,35.7142874,-79.7975166,1
418,"Red Springs, North Carolina",NC,0,2,34.8151633,-79.183091,2
419,"Woodfin, North Carolina",NC,0,1,35.633444,-82.5820725,1
420,"Aberdeen, South Dakota",SD,1,0,45.4646985,-98.4864829,1
421,"Clear Lake, South Dakota",SD,1,0,44.7457977,-96.6825584,1
422,"Fort Thompson, South Dakota",SD,1,0,44.068601,-99.4378846,1
423,"Huron, South Dakota",SD,1,0,44.3633173,-98.2142572,1
424,"Lake Andes, South Dakota",SD,1,0,43.1563822,-98.5414703,1
425,"Lead, South Dakota",SD,2,0,44.3522065,-103.7651984,2
426,"Onida, South Dakota",SD,1,0,44.7080379,-100.059845,1
427,"Pierre, South Dakota",SD,1,0,44.3683156,-100.3509665,1
428,"Rapid City, South Dakota",SD,2,0,44.0805434,-103.2310149,2
429,"Sioux Falls, South Dakota",SD,2,0,43.5499749,-96.700327,2
430,"Vermillion, South Dakota",SD,1,0,42.7794417,-96.9292104,1
431,"Wagner, South Dakota",SD,1,0,43.0797156,-98.2931342,1
432,"Whitney, South Dakota",SD,1,0,43.8366201,-103.1884552,1
433,"Mitchell, South Dakota",SD,0,1,43.7092877,-98.0298399,1
434,"Abilene, Texas",TX,1,0,32.4838865,-99.71564956803292,1
435,"Alamo, Texas",TX,1,0,26.1822255,-98.11502874909901,1
436,"Alice, Texas",TX,1,1,27.7596485,-98.0707618913295,2
437,"Alto, Texas",TX,1,0,31.6504546,-95.0727175,1
438,"Alton, Texas",TX,2,1,26.2773795,-98.28839274944201,3
439,"Alvin, Texas",TX,2,0,29.28472515,-95.1125557457345,2
440,"Amarillo, Texas",TX,8,0,35.2072185,-101.8338246,8
441,"Anahuac, Texas",TX,1,0,29.7651595,-94.6781374957217,1
442,"Arlington, Texas",TX,13,6,32.701843,-97.13997597541972,19
443,"Arp, Texas",TX,1,0,32.2254332,-95.0577207,1
444,"Atascocita, Texas",TX,1,0,29.9988306,-95.1765978,1
445,"Atascosa, Texas",TX,1,0,28.7924803,-98.139629,1
446,"Athens, Texas",TX,1,0,32.2048735,-95.8555207,1
447,"Austin, Texas",TX,14,3,30.2718065,-97.80359592244258,17
448,"Azle, Texas",TX,1,0,32.896898,-97.5495391,1
449,"Balch Springs, Texas",TX,1,0,32.7194665,-96.61020688490721,1
450,"Bandera, Texas",TX,1,0,29.7233825,-99.07396713048571,1
451,"Bandera County, Texas",TX,1,0,29.7300155,-99.2095738002076,1
452,"Bardwell, Texas",TX,2,1,32.2690354,-96.6961027,3
453,"Bastrop, Texas",TX,2,0,30.0854964,-97.0851637,2
454,"Baytown, Texas",TX,4,0,29.684649,-94.9309393855974,4
455,"Beaumont, Texas",TX,6,2,30.0860459,-94.1018461,8
456,"Beeville, Texas",TX,2,0,28.40995,-97.7480006849458,2
457,"Bellaire, Texas",TX,2,0,29.7076452,-95.4600669383105,2
458,"Benbrook, Texas",TX,1,0,32.696598,-97.445054,1
459,"Bexar County, Texas",TX,4,1,29.4372179,-98.47251137923809,5
460,"Big Spring, Texas",TX,1,1,32.2370195,-101.477732453279,2
461,"Bloomington, Texas",TX,1,0,28.6477735,-96.8924852,1
462,"Bon Wier, Texas",TX,1,0,30.740222,-93.6422252,1
463,"Brenham, Texas",TX,1,0,30.1590475,-96.3954497120726,1
464,"Brownfield, Texas",TX,1,1,33.173755,-102.269261890315,2
465,"Brownsville, Texas",TX,2,0,25.9140256,-97.4890856,2
466,"Bryan, Texas",TX,2,0,30.6743643,-96.3699632,2
467,"Burleson, Texas",TX,1,0,30.4764878,-96.6353488,1
468,"Carrollton, Texas",TX,1,0,32.9537349,-96.8902816,1
469,"Cedar Hill, Texas",TX,2,1,32.5871635,-96.9621115125276,3
470,"Center, Texas",TX,1,0,31.793327,-94.17756845102079,1
471,"Cibolo, Texas",TX,1,0,29.561618,-98.2269553,1
472,"Cleburne, Texas",TX,1,0,32.357629,-97.40859189283329,1
473,"Colleyville, Texas",TX,1,0,32.8919275,-97.1555057525678,1
474,"Columbus, Texas",TX,1,0,29.7042695,-96.55486088832069,1
475,"Comal County, Texas",TX,1,0,29.8180854,-98.2889577956694,1
476,"Conroe, Texas",TX,4,0,30.393222,-95.6401663824086,4
477,"Copperas Cove, Texas",TX,1,0,31.124062,-97.9030785,1
478,"Corinth, Texas",TX,1,0,33.141452,-97.06734237340592,1
479,"Corpus Christi, Texas",TX,7,1,27.823713,-97.41739794352941,8
480,"Corsicana, Texas",TX,1,1,32.0756495,-96.49526755427709,2
481,"Crosby, Texas",TX,1,0,33.4089784,-101.1483729,1
482,"Crowley, Texas",TX,1,0,32.5767335,-97.3585231380221,1
483,"Cypress, Texas",TX,5,2,29.9691116,-95.6971686,7
484,"Dale, Texas",TX,1,0,29.9274436,-97.5644418,1
485,"Dallas, Texas",TX,90,14,32.7801052,-96.8000082,104
486,"DeSoto, Texas",TX,1,3,29.390781,-98.526798,4
487,"Deadwood, Texas",TX,1,0,32.1398851,-94.1418587,1
488,"Del Valle, Texas",TX,1,0,30.2107669,-97.6547243,1
489,"Denison, Texas",TX,1,0,33.706201,-96.5844466439732,1
490,"Denton, Texas",TX,3,3,33.2375905,-97.1306609813245,6
491,"Denton County, Texas",TX,1,0,33.0265105,-96.8635139,1
492,"Donna, Texas",TX,3,0,26.1702082,-98.0522376,3
493,"Dove Creek, Texas",TX,1,0,30.5056054,-97.6717672,1
494,"Duncanville, Texas",TX,1,1,32.647691,-96.9170435699782,2
495,"Eden, Texas",TX,1,0,31.2161476,-99.8454772,1
496,"Edinburg, Texas",TX,1,0,26.2527695,-98.19367824779209,1
497,"El Paso, Texas",TX,10,2,31.81113155,-106.501349289734,12
498,"Elgin, Texas",TX,1,0,30.35517,-97.39176157067058,1
499,"Euless, Texas",TX,2,0,32.84610745,-97.06673834300649,2
500,"Fairview, Texas",TX,2,0,33.1578952,-96.6316593,2
501,"Fannett, Texas",TX,1,0,29.9260395,-94.2504458,1
502,"Flower Mound, Texas",TX,2,0,33.036426,-97.1165370693961,2
503,"Forney, Texas",TX,1,1,32.74630795,-96.4516126964338,2
504,"Fort Bend County, Texas",TX,3,0,29.5253232,-95.74496432204559,3
505,"Fort Hood, Texas",TX,3,0,31.13,-97.78,3
506,"Fort Worth, Texas",TX,41,7,32.693397,-97.4706709166667,48
507,"Franklin County, Texas",TX,1,0,33.175972,-95.2183923866996,1
508,"Freeport, Texas",TX,1,0,28.9427765,-95.35460112430641,1
509,"Galveston, Texas",TX,1,0,29.2332775,-94.8601599769047,1
510,"Garland, Texas",TX,5,1,32.912624,-96.6388833,6
511,"Glen Rose, Texas",TX,2,0,32.243494,-97.74953982023659,2
512,"Godley, Texas",TX,1,0,32.449029,-97.5266886,1
513,"Gonzales County, Texas",TX,1,0,29.447222,-97.50258531238269,1
514,"Granbury, Texas",TX,3,0,32.433278,-97.759011,3
515,"Grand Prairie, Texas",TX,7,3,32.65764395,-97.0285689717472,10
516,"Grapevine, Texas",TX,2,1,32.936068,-97.06737195223559,3
517,"Greenville, Texas",TX,2,0,33.112278,-96.117602582763,2
518,"Haltom City, Texas",TX,1,0,32.8202545,-97.2705573099683,1
519,"Hardin County, Texas",TX,1,0,30.3142215,-94.38791439660558,1
520,"Harlingen, Texas",TX,1,0,26.1906306,-97.6961026,1
521,"Harper, Texas",TX,1,0,30.2999195,-99.2442144,1
522,"Harris County, Texas",TX,22,3,29.8152236,-94.9176032,25
523,"Harrison County, Texas",TX,1,0,32.5599535,-94.3728164200457,1
524,"Hays County , Texas",TX,1,0,30.0548461,-98.02402563516091,1
525,"Hearne, Texas",TX,1,0,30.87819,-96.5956469060742,1
526,"Hebbronville, Texas",TX,1,0,27.3068397,-98.6780811,1
527,"Henderson, Texas",TX,1,0,32.0884931,-95.4718003,1
528,"Hereford, Texas",TX,1,0,34.8150622,-102.3977036,1
529,"Hidalgo County, Texas",TX,1,0,26.410046,-98.18764702708651,1
530,"Highland Village, Texas",TX,1,0,33.09461,-97.0577207699745,1
531,"Highlands, Texas",TX,2,0,29.818836,-95.0560404,2
532,"Hitchcock, Texas",TX,1,1,29.261449,-95.0175285670541,2
533,"Honey Grove, Texas",TX,1,1,33.5834377,-95.9099681,2
534,"Houston, Texas",TX,204,32,29.9519265,-95.54091698405242,236
535,"Hubbard, Texas",TX,1,0,31.8484935,-96.797215,1
536,"Hudson Bend, Texas",TX,1,0,30.4171444,-97.9291787,1
537,"Ingleside, Texas",TX,1,0,27.8666025,-97.2067479147068,1
538,"Irving, Texas",TX,2,2,32.862876,-96.9791392558391,4
539,"Jasper, Texas",TX,1,0,30.2743745,-93.9056287,1
540,"Katy, Texas",TX,2,2,29.7929303,-95.8296651465649,4
541,"Kaufman, Texas",TX,1,0,32.565973,-96.3067015913235,1
542,"Keller, Texas",TX,1,1,32.9357105,-97.22896927141491,2
543,"Kerrville, Texas",TX,1,0,30.0474332,-99.1403189,1
544,"Killeen, Texas",TX,9,3,31.1171194,-97.7277959,12
545,"Kountze, Texas",TX,1,0,30.37432,-94.31679797679001,1
546,"Lancaster, Texas",TX,3,0,32.598302,-96.77512111282441,3
547,"Laredo, Texas",TX,3,0,27.506407,-99.5075421,3
548,"Las Yescas, Texas",TX,1,0,26.2228516,-97.5058182,1
549,"League City, Texas",TX,1,0,29.5074538,-95.0949303,1
550,"Leander, Texas",TX,1,1,30.57814,-97.8425888879418,2
551,"Lewisville, Texas",TX,2,0,33.042576,-96.9662897276534,2
552,"Little Elm, Texas",TX,1,1,33.1626194,-96.9375051,2
553,"Live Oak, Texas",TX,1,1,28.170008,-97.8471215,2
554,"Longview, Texas",TX,2,1,32.5065765,-94.75150988513019,3
555,"Lopezville, Texas",TX,1,0,26.2382939,-98.1595151,1
556,"Lubbock, Texas",TX,9,1,33.5778631,-101.8551665,10
557,"Mansfield, Texas",TX,1,1,32.5643835,-97.1121036778354,2
558,"Marshall, Texas",TX,1,0,32.5311225,-94.3446130081966,1
559,"Maypearl, Texas",TX,2,0,32.3132003,-97.0116691,2
560,"McAllen, Texas",TX,1,0,26.2260035,-98.2373177181604,1
561,"McCamey, Texas",TX,1,0,31.135591,-102.2244427,1
562,"McGregor, Texas",TX,1,0,31.4388265,-97.4067399791469,1
563,"McKinney, Texas",TX,1,0,33.1976496,-96.6154471,1
564,"Mercedes, Texas",TX,2,0,26.1497977,-97.9136112,2
565,"Mesquite, Texas",TX,3,3,32.7666103,-96.599472,6
566,"Midland, Texas",TX,1,1,31.83688,-102.0103767,2
567,"Midland County, Texas",TX,1,0,31.86918585,-102.031586918774,1
568,"Mission, Texas",TX,1,0,26.1985485,-98.31028620466171,1
569,"Montgomery County, Texas",TX,2,1,30.1791039,-95.1623323,3
570,"Morgan's Point, Texas",TX,1,1,29.6793945,-94.9899276,2
571,"Mount Enterprise, Texas",TX,1,0,31.9179473,-94.6810439,1
572,"Nacogdoches County, Texas",TX,2,0,31.536146,-94.59451605196631,2
573,"Natalia, Texas",TX,1,0,29.189684,-98.8625269,1
574,"New Boston, Texas",TX,1,0,33.460448,-94.4201115730663,1
575,"New Braunfels, Texas",TX,2,0,29.7029248,-98.12469,2
576,"North Austin, Texas",TX,1,0,30.36815625,-97.7066873868812,1
577,"North Richland Hills, Texas",TX,1,0,32.8601325,-97.21205489622321,1
578,"Oak Cliff, Texas",TX,6,0,29.7104586,-98.1460417,6
579,"Oak Point, Texas",TX,1,0,33.17777,-96.9888556964332,1
580,"Odessa, Texas",TX,3,1,31.8457149,-102.367687,4
581,"Palmhurst, Texas",TX,1,0,26.2584053,-98.3180712,1
582,"Palmview, Texas",TX,4,1,26.2283965,-98.36749676775179,5
583,"Pampa, Texas",TX,1,0,35.547907,-100.967731112225,1
584,"Paris, Texas",TX,6,0,33.6751155,-95.5502662477703,6
585,"Parker County, Texas",TX,1,0,32.777937,-97.80382533102991,1
586,"Pasadena, Texas",TX,1,0,29.6910625,-95.2091006,1
587,"Pearland, Texas",TX,4,2,29.547838,-95.3838393834951,6
588,"Pearsall, Texas",TX,1,1,28.8921939,-99.095033,2
589,"Plano, Texas",TX,2,1,33.0136764,-96.6925096,3
590,"Pleasant Grove, Texas",TX,2,0,32.0212766,-94.9554951,2
591,"Port Arthur, Texas",TX,4,3,29.8988258,-93.9287815,7
592,"Porter Heights, Texas",TX,1,1,30.1579383,-95.3203117,2
593,"Quitman, Texas",TX,1,1,32.793739,-95.44645739603891,2
594,"Rice, Texas",TX,4,1,32.2437586,-96.4985967,5
595,"Richardson, Texas",TX,1,1,32.9481789,-96.7297206,2
596,"Richmond, Texas",TX,2,0,29.5893005,-95.7667299588989,2
597,"Robinson, Texas",TX,1,1,31.4676687,-97.1147226,2
598,"Rockwall, Texas",TX,1,3,32.8967899,-96.2982136,4
599,"Rusk, Texas",TX,1,0,31.8762825,-94.5339953,1
600,"San Angelo, Texas",TX,1,1,31.432144,-100.454467551013,2
601,"San Antonio, Texas",TX,64,12,29.4246002,-98.4951405,76
602,"San Leon, Texas",TX,1,0,29.4832863,-94.9221465,1
603,"San Marcos, Texas",TX,1,1,29.8826436,-97.9405828,2
604,"Sand Springs, Texas",TX,1,0,32.2826198,-101.3509559,1
605,"Sands Springs, Texas",TX,1,0,29.976767,-95.182283,1
606,"Seminole, Texas",TX,1,1,32.7247135,-102.650385348958,2
607,"Snook, Texas",TX,1,0,30.488816,-96.4644102,1
608,"Snyder, Texas",TX,1,0,32.712745,-100.91286976556299,1
609,"Southlake, Texas",TX,1,0,32.962582,-97.15113515099091,1
610,"Spring, Texas",TX,4,1,30.0798826,-95.4172549,5
611,"Stafford, Texas",TX,4,0,29.6234075,-95.5642096263499,4
612,"Stone Oak, Texas",TX,1,0,29.6437381,-98.4952228,1
613,"Tarrant County, Texas",TX,1,0,32.6316957,-97.0737574,1
614,"Taylor Lake Village, Texas",TX,1,0,29.5774867,-95.05744773949779,1
615,"Temple, Texas",TX,3,0,31.098207,-97.3427847,3
616,"Terrell, Texas",TX,3,3,29.9351964,-101.8203006,6
617,"Texarkana, Texas",TX,2,2,33.441418,-94.0738243416923,4
618,"Texas City, Texas",TX,2,0,29.4336705,-94.91931924842692,2
619,"The Woodlands, Texas",TX,1,0,30.1733046,-95.5047303,1
620,"Three Rivers, Texas",TX,1,0,28.4602717,-98.1825071,1
621,"Tidwell, Texas",TX,2,0,33.2095584,-96.1013617,2
622,"Tyler, Texas",TX,4,2,32.330625,-95.30742082134441,6
623,"Universal City, Texas",TX,1,0,29.5480071,-98.2911235,1
624,"Vidor, Texas",TX,1,0,30.138118,-93.9843424111247,1
625,"Waco, Texas",TX,5,2,31.549333,-97.1466695,7
626,"Wall, Texas",TX,2,0,31.3740524,-100.3075869,2
627,"Waxahachie, Texas",TX,2,1,32.40549,-96.83891771821699,3
628,"Waxahachie , Texas",TX,1,0,32.388547,-96.9288416859837,1
629,"Weatherford, Texas",TX,3,0,32.7647075,-97.68189195542548,3
630,"Webster, Texas",TX,1,1,29.5377315,-95.1182645,2
631,"Weslaco, Texas",TX,2,0,26.15592,-97.9804635472487,2
632,"Wharton, Texas",TX,1,0,29.255248,-95.8998532,1
633,"Wichita Falls, Texas",TX,5,0,33.9161075,-98.5067371043467,5
634,"Wolfforth, Texas",TX,2,0,33.5059189,-102.0090575,2
635,"Bloomburg, Texas",TX,0,1,33.1379088,-94.0574061,1
636,"Brownwood, Texas",TX,0,1,31.7337655,-98.98583484920059,1
637,"Canton, Texas",TX,0,1,32.560651,-95.87126756114701,1
638,"Concho County, Texas",TX,0,1,31.3336505,-99.8596769413311,1
639,"Elmendorf, Texas",TX,0,1,29.2581166,-98.301671989788,1
640,"Fairfield, Texas",TX,0,1,31.7164755,-96.172884780441,1
641,"Gilmer, Texas",TX,0,1,32.729852,-94.952109572207,1
642,"Grape Creek, Texas",TX,0,1,31.5793231,-100.5475979,1
643,"Joshua, Texas",TX,0,1,32.4615291,-97.3880732,1
644,"Kilgore, Texas",TX,0,1,32.39331,-94.86476473465571,1
645,"Nederland, Texas",TX,0,1,29.9827965,-94.001875861322,1
646,"Panther Creek, Texas",TX,0,1,30.1658518,-95.4923714,1
647,"Round Rock, Texas",TX,0,2,30.572587,-97.6483833986758,2
648,"Saginaw, Texas",TX,0,1,32.85141,-97.3658154301618,1
649,"West Bexar County, Texas",TX,0,1,29.4200763,-98.5721016,1
650,"Willacy County, Texas",TX,0,1,26.45598445,-97.58654844151009,1
651,"Absarokee, Montana",MT,1,0,45.5204982,-109.4429444,1
652,"Anaconda, Montana",MT,1,0,46.1285369,-112.9422641,1
653,"Augusta, Montana",MT,1,0,47.4927251,-112.3922458,1
654,"Belgrade, Montana",MT,1,0,45.7732787,-111.1845352,1
655,"Billings, Montana",MT,11,1,45.7874957,-108.49607,12
656,"Bozeman, Montana",MT,1,0,45.6799842,-111.0446748,1
657,"Butte, Montana",MT,1,0,45.9838436,-112.5007277,1
658,"Cedar Hill, Montana",MT,1,0,46.0938178,-111.4057971,1
659,"Evergreen, Montana",MT,1,0,48.2258788,-114.2762514,1
660,"Florence, Montana",MT,1,0,46.6315897,-114.0789959,1
661,"Great Falls, Montana",MT,1,0,47.506188,-111.231405298865,1
662,"Havre, Montana",MT,1,0,48.549999,-109.6840887,1
663,"Helena, Montana",MT,2,0,46.5927122,-112.036109,2
664,"Missoula, Montana",MT,2,0,46.8795445,-113.921434505587,2
665,"St. Regis, Montana",MT,1,0,47.2993743,-115.1026388,1
666,"Townsend, Montana",MT,1,0,46.3190976,-111.5208023,1
667,"Whitefish, Montana",MT,3,0,48.4099506,-114.3342212,3
668,"Acampo, California",CA,3,0,38.1746398,-121.2785588,3
669,"Adelanto, California",CA,2,1,34.579452,-117.336473432733,3
670,"Alameda, California",CA,1,0,37.7652065,-122.2416355,1
671,"Alameda County, California",CA,2,0,37.67988045,-121.90767370056999,2
672,"Alhambra, California",CA,2,0,34.0855425,-118.13441945506099,2
673,"Altadena, California",CA,1,0,34.1938705,-118.136502410495,1
674,"Anaheim, California",CA,4,0,33.8347516,-117.911732,4
675,"Angeles National Forest, California",CA,1,0,34.141436,-117.798525,1
676,"Antioch, California",CA,11,1,37.9755365,-121.793642692233,12
677,"Apple Valley, California",CA,2,0,34.537838,-117.219160542915,2
678,"Arcata, California",CA,1,1,40.8665166,-124.0828396,2
679,"Arleta, California",CA,1,0,34.2675168,-118.4516963,1
680,"Arlington Heights, California",CA,1,0,40.055725,-120.8902318,1
681,"Aromas, California",CA,2,0,36.8763115,-121.643022142846,2
682,"Arroyo Grande, California",CA,3,0,35.1241377,-120.580416690972,3
683,"Artesia, California",CA,2,0,33.8611649,-118.0782044,2
684,"Athens, California",CA,1,0,33.9200153,-118.2811844,1
685,"Atwater, California",CA,2,1,37.353364,-120.603307202474,3
686,"Auburn, California",CA,1,0,38.89575015,-121.071632729018,1
687,"Azusa, California",CA,2,0,34.1338751,-117.9056046,2
688,"Bakersfield, California",CA,18,2,35.223234,-118.95361663035801,20
689,"Baldwin Park, California",CA,2,0,34.0811095,-117.964517855105,2
690,"Ballico, California",CA,1,0,37.4543809,-120.7060337,1
691,"Banning, California",CA,2,0,33.96869745,-116.933657179283,2
692,"Barstow, California",CA,2,0,34.8957684,-117.0172077,2
693,"Bayview, California",CA,2,0,40.7726266,-124.1839502,2
694,"Bel-Air, California",CA,1,0,34.07094015,-118.446702633043,1
695,"Bell Gardens, California",CA,1,0,33.96561315,-118.152893298018,1
696,"Bellflower, California",CA,1,0,33.8825705,-118.1167679,1
697,"Berkeley, California",CA,5,0,37.8707755,-122.30185252021201,5
698,"Bonita, California",CA,1,0,32.6648235,-117.01586891226101,1
699,"Boyle Heights, California",CA,1,0,34.0331656,-118.2048648,1
700,"Brawley, California",CA,1,0,33.0185295,-115.51593622179001,1
701,"Brea, California",CA,1,0,33.9181945,-117.8994423,1
702,"Burlingame, California",CA,1,0,37.58788275,-122.36274165918199,1
703,"Burson, California",CA,1,0,38.1838079,-120.8904938,1
704,"Cabazon, California",CA,1,0,33.90848725,-116.779315447575,1
705,"Calexico, California",CA,1,0,32.6858415,-115.491576158431,1
706,"California, California",CA,1,0,37.786376,-122.2902807,1
707,"California City, California",CA,1,1,35.1457415,-117.957901319624,2
708,"Camino, California",CA,1,0,38.7382366,-120.6749302,1
709,"Campbell, California",CA,2,1,37.28077545,-121.94971703802,3
710,"Capitola, California",CA,1,0,36.97481995,-121.956979349893,1
711,"Carlsbad, California",CA,2,0,33.1580933,-117.3505939,2
712,"Carson, California",CA,3,0,33.8394267,-118.247031555986,3
713,"Castro Valley, California",CA,1,0,37.7158075,-122.090312052943,1
714,"Ceres, California",CA,1,0,37.5972605,-120.94785635634001,1
715,"Chico, California",CA,1,1,39.7578465,-121.825710737511,2
716,"Chino Hills, California",CA,2,0,33.9926803,-117.760056,2
717,"Citrus Heights, California",CA,3,0,38.6931659,-121.293648092323,3
718,"Clearlake, California",CA,1,0,38.9573975,-122.626309056056,1
719,"Coachella, California",CA,1,0,33.6795519,-116.176338,1
720,"Coarsegold, California",CA,1,0,37.2621687,-119.7009834,1
721,"Colton, California",CA,1,0,34.05710205,-117.323778193832,1
722,"Commerce, California",CA,1,0,33.99507245,-118.144500755116,1
723,"Compton, California",CA,15,1,33.9136248,-118.2468201,16
724,"Corona, California",CA,2,3,33.8594315,-117.551191741327,5
725,"Covelo, California",CA,1,0,39.802415,-123.247792937936,1
726,"Crescent City, California",CA,1,0,41.852958,-124.149809424351,1
727,"Cudahy, California",CA,1,0,33.9626205,-118.181598022271,1
728,"Culver City, California",CA,1,0,34.0211224,-118.3964665,1
729,"Del Ray, California",CA,1,0,33.9852896,-118.4253554,1
730,"Del Rey, California",CA,1,0,36.655975,-119.599864735914,1
731,"Delano, California",CA,4,0,35.750376,-119.324115526073,4
732,"Delhi, California",CA,2,0,37.4339725,-120.77684000602899,2
733,"Desert Hot Springs, California",CA,3,1,33.9614721,-116.55390228287202,4
734,"Dinuba, California",CA,1,0,36.5432837,-119.3870656,1
735,"Dos Palos, California",CA,2,0,36.985468,-120.63113900795,2
736,"Downey, California",CA,4,0,33.9400143,-118.1325688,4
737,"Duarte, California",CA,1,0,34.1394513,-117.9772873,1
738,"Earlimart, California",CA,1,0,35.8841206,-119.2723328,1
739,"East Palo Alto, California",CA,6,0,37.4688273,-122.1410751,6
740,"East San Jose, California",CA,2,0,37.2519581,-121.82038690009199,2
741,"El Cajon, California",CA,1,0,32.7947731,-116.9625269,1
742,"El Dorado County, California",CA,1,0,38.851018,-119.9339696,1
743,"El Monte, California",CA,1,2,34.0711695,-118.03785403819599,3
744,"El Rio, California",CA,1,0,34.244036,-119.156870462756,1
745,"El Sereno, California",CA,1,0,34.0811213,-118.1778495,1
746,"El Sobrante, California",CA,1,0,37.9774476,-122.2949894,1
747,"Elk Grove, California",CA,1,0,38.4087993,-121.3716178,1
748,"Emeryville, California",CA,1,0,37.838553,-122.302828817922,1
749,"Encinitas, California",CA,2,0,33.0369867,-117.2919818,2
750,"Encino, California",CA,1,0,34.1588478,-118.500478,1
751,"Escondido, California",CA,3,0,33.1216751,-117.0814849,3
752,"Exeter, California",CA,1,0,36.2960613,-119.1420517,1
753,"Exposition Park, California",CA,1,0,34.0150132,-118.2864635,1
754,"Fairfield, California",CA,2,0,38.23362,-122.07690538926902,2
755,"Fairmead, California",CA,1,0,37.0763341,-120.1929487,1
756,"Farmersville, California",CA,1,0,36.2977283,-119.2067767,1
757,"Ferndale, California",CA,1,0,40.580644,-124.262242561122,1
758,"Fillmore, California",CA,1,0,34.3985613,-118.9125093,1
759,"Fontana, California",CA,4,3,34.1088175,-117.459930142996,7
760,"Foothill Farms, California",CA,2,2,38.6836185,-121.34710066369301,4
761,"Forestville, California",CA,3,0,38.4833785,-122.861585962542,3
762,"Frazier Park, California",CA,1,0,34.81156435,-118.95776319513399,1
763,"Fremont, California",CA,2,0,37.5482697,-121.9885719,2
764,"French Valley, California",CA,2,0,33.5994102,-117.1091717,2
765,"Fresno, California",CA,27,4,36.7322115,-119.69970961134001,31
766,"Fresno County, California",CA,1,0,36.7463883,-119.67352054122699,1
767,"Fullerton, California",CA,1,0,33.8725893,-117.9229191,1
768,"Galt, California",CA,3,0,38.300719,-121.330943415758,3
769,"Garden Grove, California",CA,3,1,33.7746292,-117.9463717,4
770,"Gardena, California",CA,1,0,33.8883302,-118.3070892,1
771,"Gavilan Hills, California",CA,1,0,33.784463,-117.3692084,1
772,"Gilroy, California",CA,1,0,37.0092712,-121.589923029106,1
773,"Glassell Park, California",CA,2,0,34.1161201,-118.2289627,2
774,"Glendale, California",CA,1,0,34.1423455,-118.2483671,1
775,"Greenfield, California",CA,1,0,35.2688739,-119.0028731,1
776,"Guerneville, California",CA,2,0,38.5115445,-122.987034159778,2
777,"Hacienda Heights, California",CA,1,2,34.0022074,-117.97839946992599,3
778,"Hawthorne, California",CA,2,0,33.9140135,-118.344055566788,2
779,"Hayward, California",CA,7,0,37.6688205,-122.0807964,7
780,"Hemet, California",CA,4,3,33.722095,-117.00651901451401,7
781,"Highland Park, California",CA,1,0,34.1099469,-118.1969828,1
782,"Hilmar, California",CA,1,0,37.4085479,-120.8502035,1
783,"Hollywood, California",CA,2,0,34.1028268,-118.3299899,2
784,"Humboldt County, California",CA,1,0,40.7335541,-123.879211498361,1
785,"Hunter's Point, California",CA,1,0,37.727029,-122.3589769,1
786,"Huntington Beach, California",CA,4,0,33.6920535,-117.999249145138,4
787,"Huntington Park, California",CA,1,0,33.9816812,-118.2250725,1
788,"Imperial, California",CA,2,0,32.7892118,-114.5559618,2
789,"Indio, California",CA,2,0,33.74385575,-116.197037830001,2
790,"Inglewood, California",CA,8,3,33.9616801,-118.3531311,11
791,"Ingot, California",CA,2,0,40.7276534,-122.0791666,2
792,"Irvine, California",CA,1,1,33.6862707,-117.8258199,2
793,"Ivanhoe, California",CA,1,0,36.385024,-119.220297914299,1
794,"Jurupa Valley, California",CA,3,0,33.9798472,-117.4515754,3
795,"Kelseyville, California",CA,1,0,38.9779531,-122.8394375,1
796,"Kerman, California",CA,1,0,36.7221815,-120.06246080492001,1
797,"Kern County, California",CA,1,0,35.2934231,-118.720389325669,1
798,"King City, California",CA,4,1,36.226628,-121.15856737655001,5
799,"La Crescenta, California",CA,1,0,34.2239835,-118.2403974,1
800,"La Mesa, California",CA,1,0,32.7678288,-117.0230839,1
801,"La Miranda, California",CA,1,0,40.2345864,-123.8236457,1
802,"La Puente, California",CA,2,0,34.0331365,-117.95219057523501,2
803,"La Verne, California",CA,1,0,34.1008426,-117.7678355,1
804,"Laguna Hills, California",CA,1,0,33.65719445,-117.349398959129,1
805,"Laguna Niguel, California",CA,1,0,33.5225261,-117.7075526,1
806,"Lake Elsinore, California",CA,1,1,33.6680772,-117.3272615,2
807,"Lake Merritt, California",CA,2,0,37.8045934,-122.25626697537399,2
808,"Lakewood, California",CA,2,0,33.84713195,-118.13358826692499,2
809,"Lancaster, California",CA,2,1,34.6998995,-118.18736247758301,3
810,"Lawndale, California",CA,1,0,33.88711,-118.3531481,1
811,"Le Grand, California",CA,1,0,37.217724,-120.257260197963,1
812,"Le Mesa, California",CA,1,0,32.7678288,-117.0230839,1
813,"Littlerock, California",CA,1,0,34.52139,-117.98739187439199,1
814,"Live Oak, California",CA,2,0,36.990384,-121.978753299844,2
815,"Livermore, California",CA,1,0,37.731528,-121.731063,1
816,"Livingston, California",CA,1,0,37.3868826,-120.7235329,1
817,"Long Beach, California",CA,29,4,33.7774658,-118.1884871,33
818,"Los Angeles, California",CA,286,17,34.0501713,-118.2419714,303
819,"Los Angeles , California",CA,1,0,34.0536781,-118.2427025,1
820,"Los Angeles County, California",CA,1,0,34.24140515,-118.145520591821,1
821,"Los Banos, California",CA,3,0,37.0655625,-120.841982360549,3
822,"Los Feliz, California",CA,1,0,34.1043459,-118.2914281,1
823,"Lynwood, California",CA,3,0,33.925251,-118.20351423892599,3
824,"Madera, California",CA,5,0,36.942141,-120.171452075392,5
825,"Madera County, California",CA,1,0,37.2705719,-119.63570949574101,1
826,"Magalia, California",CA,2,0,39.8121058,-121.5783059,2
827,"Marin City, California",CA,1,0,37.868538,-122.5091404,1
828,"Marina Del Rey, California",CA,1,0,33.9753235,-118.445647631934,1
829,"Maywood, California",CA,2,0,33.98833675,-118.18842963824899,2
830,"McFarland, California",CA,2,0,35.677856,-119.22931289991502,2
831,"Menifee, California",CA,2,2,33.6864432,-117.1770437,4
832,"Merced, California",CA,2,0,37.3029568,-120.4843269,2
833,"Merced County, California",CA,1,0,37.1869636,-120.60942637015499,1
834,"Milpitas, California",CA,1,0,37.43143895,-121.88526595373399,1
835,"Modesto, California",CA,12,2,37.636724,-120.90148524417,14
836,"Monrovia, California",CA,1,0,34.201558,-118.1734475,1
837,"Montclair, California",CA,2,0,34.07171275,-117.697687709851,2
838,"Monterey, California",CA,1,0,36.5845085,-121.86681901043801,1
839,"Moreno Valley, California",CA,5,1,33.921961,-117.200107316579,6
840,"Mount Hope, California",CA,1,0,32.7142185,-117.1075309,1
841,"Murphys, California",CA,2,1,38.148332,-120.4505355,3
842,"Napa, California",CA,1,0,38.32377705,-122.3355205746,1
843,"National City, California",CA,1,0,32.6781085,-117.0991967,1
844,"Newark, California",CA,1,0,37.521024,-122.026348406922,1
845,"Newport Beach, California",CA,1,1,33.6170092,-117.9294401,2
846,"Norco, California",CA,1,0,33.9277225,-117.55562230361099,1
847,"Norwalk, California",CA,1,0,33.9164121,-118.0718578,1
848,"Oak View, California",CA,1,0,34.397523,-119.30022889575001,1
849,"Oakdale, California",CA,1,0,37.7665947,-120.8471545,1
850,"Oakland, California",CA,71,14,37.8043808,-122.2708166,85
851,"Oceanside, California",CA,2,1,33.1958696,-117.3794834,3
852,"Ontario, California",CA,3,0,34.0633443,-117.6508876,3
853,"Orange, California",CA,3,1,33.7878549,-117.8530908,4
854,"Orange County, California",CA,1,0,33.6671869,-117.720593399723,1
855,"Orange Cove, California",CA,1,0,36.606639,-119.33436230299601,1
856,"Orangevale, California",CA,2,0,38.6841725,-121.218464482522,2
857,"Orosi, California",CA,1,1,36.5473593,-119.28924846950198,2
858,"Oroville, California",CA,3,1,39.4900785,-121.564487694774,4
859,"Oxnard, California",CA,7,3,34.1975048,-119.1770516,10
860,"Pacific Palisades, California",CA,2,0,34.0480643,-118.5264706,2
861,"Palermo, California",CA,2,0,39.435057,-121.53525892371201,2
862,"Palm Desert, California",CA,1,1,33.7404645,-116.36910557863199,2
863,"Palmdale, California",CA,5,1,34.585428,-118.124321485448,6
864,"Palmetto, California",CA,1,0,33.7453584,-117.7771984,1
865,"Palo Alto, California",CA,1,0,37.442156,-122.1634472,1
866,"Paramount, California",CA,2,0,33.8992926,-118.16494983911501,2
867,"Pasadena, California",CA,5,0,34.18455365,-118.17355987325399,5
868,"Paso Robles, California",CA,1,0,35.6267654,-120.6912456,1
869,"Patterson, California",CA,1,0,37.471623,-121.1296949,1
870,"Perris, California",CA,5,0,33.7919875,-117.22433591306499,5
871,"Pico Rivera, California",CA,1,0,33.9830688,-118.096735,1
872,"Pittsburg, California",CA,2,1,38.021408,-121.885031239909,3
873,"Pixley, California",CA,2,0,35.9685649,-119.2917785,2
874,"Placentia, California",CA,1,0,33.8722371,-117.8703363,1
875,"Placerville, California",CA,1,0,38.730703,-120.796312705405,1
876,"Planada, California",CA,3,0,37.2884235,-120.324810120105,3
877,"Pomona, California",CA,27,2,34.0552886,-117.7522793,29
878,"Port Hueneme, California",CA,1,0,34.159363,-119.20256088376699,1
879,"Porterville, California",CA,6,1,36.0625905,-118.982960627645,7
880,"Portola, California",CA,1,0,39.8194815,-120.467319215198,1
881,"Rancho Cordova, California",CA,2,0,38.5676485,-121.223249320424,2
882,"Rancho Cucamonga, California",CA,1,0,34.1242304,-117.565564610376,1
883,"Red Bluff, California",CA,2,0,40.182967,-122.241172753813,2
884,"Redding, California",CA,2,0,40.5018995,-122.385954041643,2
885,"Redlands, California",CA,1,0,34.072662,-117.093417,1
886,"Redondo Beach, California",CA,3,0,33.8491816,-118.3884078,3
887,"Reseda, California",CA,1,0,34.2389212,-118.5293248,1
888,"Rialto, California",CA,3,0,34.1064001,-117.3703235,3
889,"Richmond, California",CA,13,1,37.9357576,-122.3477486,14
890,"Ridgecrest, California",CA,1,1,35.6225064,-117.6699414,2
891,"Rio Linda, California",CA,1,0,38.687172,-121.459356635708,1
892,"Riverside, California",CA,8,0,33.9458443,-117.410096815875,8
893,"Rocklin, California",CA,1,0,38.7907339,-121.2357828,1
894,"Rodeo, California",CA,2,0,38.028345,-122.23742410596901,2
895,"Rolando, California",CA,1,0,33.081472,-117.040067,1
896,"Rosemead, California",CA,1,1,34.0676169,-118.0879763,2
897,"Rosemont, California",CA,1,0,38.5475445,-121.35650671371599,1
898,"Roseville, California",CA,1,0,38.7233728,-121.18587581810301,1
899,"Sacramento, California",CA,37,4,38.5815719,-121.4943996,41
900,"Salinas, California",CA,26,2,36.6604725,-121.684426752882,28
901,"San Bernardino, California",CA,32,0,34.1083449,-117.2897652,32
902,"San Bruno, California",CA,1,0,37.6230195,-122.42898208687201,1
903,"San Diego, California",CA,24,5,32.7469869,-117.21177,29
904,"San Francisco, California",CA,32,3,37.7789601,-122.419199,35
905,"San Jacinto, California",CA,5,0,33.794793,-117.006396015464,5
906,"San Jose, California",CA,24,4,37.3438502,-121.8831349,28
907,"San Leandro, California",CA,3,0,37.704815,-122.167537362919,3
908,"San Lorenzo, California",CA,3,1,37.673615,-122.131930042425,4
909,"San Marcos, California",CA,1,0,33.1433723,-117.1661449,1
910,"San Mateo, California",CA,1,0,37.5446217,-122.3091165,1
911,"San Pablo, California",CA,1,0,37.9650335,-122.34696712438101,1
912,"San Pedro, California",CA,1,0,33.7358518,-118.2922934,1
913,"San Ysidro, California",CA,1,0,32.5520013,-117.0430813,1
914,"Sanger, California",CA,1,0,36.708006,-119.5559652,1
915,"Santa Ana, California",CA,8,2,33.7490525,-117.8620053,10
916,"Santa Barbara, California",CA,2,0,34.3999755,-119.70302254930701,2
917,"Santa Clarita, California",CA,1,1,34.3916641,-118.542586,2
918,"Santa Cruz, California",CA,4,1,36.97588665,-122.033772667443,5
919,"Santa Fe Springs, California",CA,1,0,33.9472359,-118.0853451,1
920,"Santa Maria, California",CA,1,0,34.9323829,-120.45379356539301,1
921,"Santa Monica, California",CA,6,2,34.008617,-118.49475403379499,8
922,"Santa Paula, California",CA,2,2,34.3554985,-119.064954691622,4
923,"Santa Rosa, California",CA,4,0,38.367814,-122.76598019449,4
924,"Saratoga, California",CA,1,0,37.2661735,-122.02578163707399,1
925,"Seaside, California",CA,1,0,36.62581365,-121.817032663508,1
926,"Seven Oaks, California",CA,1,0,34.1863979,-116.914197,1
927,"Shingletown, California",CA,1,3,40.502371,-121.873318455686,4
928,"Simi Valley, California",CA,4,3,34.2657598,-118.73134641753599,7
929,"Skyline, California",CA,1,0,32.74169715,-116.95241405981001,1
930,"Sonoma, California",CA,1,0,37.8761542,-122.238687263807,1
931,"South El Monte, California",CA,1,0,34.0488705,-118.045758102388,1
932,"South Gate, California",CA,3,0,33.93820895,-118.18781501539301,3
933,"South Lake Tahoe, California",CA,2,0,38.92880455,-119.987831498967,2
934,"Stanton, California",CA,2,1,33.7947696,-117.99507215753,3
935,"Stockton, California",CA,20,2,37.9577016,-121.2907796,22
936,"Suisun City, California",CA,2,0,38.2475585,-122.007411375716,2
937,"Sun Valley, California",CA,1,0,34.2175042,-118.3703576,1
938,"Sunnyvale, California",CA,3,0,37.3688301,-122.0363496,3
939,"Temecula, California",CA,2,1,33.49358875,-117.11743150652201,3
940,"Templeton, California",CA,1,0,35.5606196,-120.700717473692,1
941,"Thornton, California",CA,1,0,38.2260268,-121.4246733,1
942,"Thousand Palms, California",CA,1,0,33.7517195,-116.2731592,1
943,"Three Rivers, California",CA,2,0,36.420443,-118.88029263368401,2
944,"Tollhouse, California",CA,1,0,37.018838,-119.3992957,1
945,"Torrance, California",CA,2,0,33.8358492,-118.3406288,2
946,"Tulare, California",CA,5,0,35.6521754,-118.3224811,5
947,"Tulare County, California",CA,2,0,36.26992445,-118.7962660625,2
948,"Turlock, California",CA,4,0,37.501842,-120.845998000566,4
949,"Tustin, California",CA,1,0,33.7458511,-117.826166,1
950,"Twentynine Palms, California",CA,1,0,34.16476,-116.036562499,1
951,"Union City, California",CA,6,0,37.5907215,-122.017324013925,6
952,"Vacaville, California",CA,2,0,38.34234285,-121.90154500471,2
953,"Valinda, California",CA,1,0,34.0384525,-117.933557519603,1
954,"Vallejo, California",CA,20,5,38.114559,-122.231476112523,25
955,"Valley Center, California",CA,1,1,33.2183701,-117.0341967,2
956,"Van Nuys, California",CA,2,0,34.1865032,-118.4489363,2
957,"Ventura, California",CA,5,0,34.270273,-119.242605355028,5
958,"Ventura County, California",CA,2,0,34.240837,-118.6369332,2
959,"Victorville, California",CA,7,0,34.5406414,-117.341067557552,7
960,"Visalia, California",CA,9,1,36.3302284,-119.2920585,10
961,"Vista, California",CA,1,0,33.2000368,-117.2425355,1
962,"Walnut Creek, California",CA,1,0,37.894375,-122.03643881063499,1
963,"Wasco, California",CA,2,0,35.5941238,-119.3409457,2
964,"Waterford, California",CA,1,0,37.63976,-120.758464956439,1
965,"Watsonville, California",CA,3,0,36.88707915,-121.78540016467501,3
966,"Watts, California",CA,1,0,33.9405674,-118.2428485,1
967,"Weed, California",CA,1,0,41.41327,-122.387635996861,1
968,"West Oakland, California",CA,1,0,37.80485795,-122.295167674084,1
969,"Westmont, California",CA,2,0,33.945206,-118.298403217178,2
970,"Whittier, California",CA,8,1,34.0270245,-118.055008936061,9
971,"Willowbrook, California",CA,3,0,33.9169602,-118.2550726,3
972,"Wilmington, California",CA,2,0,33.780018,-118.2625711,2
973,"Windsor, California",CA,1,0,38.532455,-122.76033958544501,1
974,"Winnetka, California",CA,1,0,34.2133375,-118.5720309,1
975,"Woodlake, California",CA,1,0,36.4110775,-119.093757762045,1
976,"Yorba Linda, California",CA,1,0,33.890981,-117.773014058691,1
977,"Yuba City, California",CA,2,0,39.1404477,-121.6169108,2
978,"Yuba County, California",CA,1,0,39.27887435,-121.438477528395,1
979,"Yucaipa, California",CA,2,0,34.0407185,-117.051676166367,2
980,"Yucca Valley, California",CA,1,0,34.13471065,-116.413682243759,1
981,"Annapolis, California",CA,0,1,38.7218559,-123.3697306,1
982,"Chino, California",CA,0,1,34.0133561,-117.690075,1
983,"French Camp, California",CA,0,1,37.8764182,-121.271755995002,1
984,"Hanford, California",CA,0,1,36.2940205,-119.676475172905,1
985,"Joshua Tree, California",CA,0,1,34.126735,-116.32106299401698,1
986,"Ladera Ranch, California",CA,0,1,33.5712292,-117.635624,1
987,"Laguna Nigel, California",CA,0,1,38.83024945,-121.091482240731,1
988,"Mad River, California",CA,0,1,40.4139261,-123.4730396,1
989,"Montebello, California",CA,0,1,34.009457,-118.1053467,1
990,"Northridge, California",CA,0,1,34.2285918,-118.5369316,1
991,"Paradise, California",CA,0,1,39.763452,-121.60678915304399,1
992,"Quincy, California",CA,0,1,39.9310755,-120.95349594037,1
993,"Redwood City, California",CA,0,1,37.4852152,-122.2363548,1
994,"San Gabriel, California",CA,0,1,34.0938138,-118.09757569586701,1
995,"San Onofre, California",CA,0,1,33.3803575,-117.5736037,1
996,"Taft, California",CA,0,1,35.125984,-119.41178786518199,1
997,"Tarzana, California",CA,0,1,34.1494848,-118.5506158,1
998,"Temple City, California",CA,0,1,34.1031775,-118.052829032497,1
999,"Winters, California",CA,0,1,38.5249065,-121.9708017,1
1000,"Acosta, Pennsylvania",PA,1,0,40.1103542,-79.0689168,1
1001,"Adams, Pennsylvania",PA,1,0,39.8708972,-77.2395963,1
1002,"Allegheny Township, Pennsylvania",PA,1,0,40.4356765,-80.0041917933408,1
1003,"Allentown, Pennsylvania",PA,9,1,40.6022032,-75.4716219,10
1004,"Altoona, Pennsylvania",PA,3,0,40.518681,-78.394736,3
1005,"Ambridge, Pennsylvania",PA,1,0,40.5892339,-80.22506,1
1006,"Archbald, Pennsylvania",PA,1,0,41.4948038,-75.5368521,1
1007,"Ashville, Pennsylvania",PA,2,2,40.5600684,-78.5486289,4
1008,"Avella, Pennsylvania",PA,1,0,40.2750705,-80.4606226,1
1009,"Barree, Pennsylvania",PA,2,0,40.5853461,-78.1005628,2
1010,"Beaver County, Pennsylvania",PA,1,1,40.6680585,-80.3341342359723,2
1011,"Beaver Falls, Pennsylvania",PA,1,0,40.7520097,-80.3192295,1
1012,"Beltzhoover, Pennsylvania",PA,1,0,40.4197915,-80.0019974,1
1013,"Bessemer, Pennsylvania",PA,1,1,40.1281278,-79.5550387,2
1014,"Bethel Park, Pennsylvania",PA,1,0,40.3275697,-80.0394977,1
1015,"Bethlehem, Pennsylvania",PA,2,1,40.6178915,-75.3786521,3
1016,"Blair County, Pennsylvania",PA,3,1,40.4870748,-78.3682329,4
1017,"Bloomfield, Pennsylvania",PA,1,0,40.4179085,-77.1898027488888,1
1018,"Braddock, Pennsylvania",PA,1,0,40.4034024,-79.8683824,1
1019,"Bucks County, Pennsylvania",PA,1,1,40.3285875,-75.1299237574973,2
1020,"Caln, Pennsylvania",PA,1,0,39.9909398,-75.7802235,1
1021,"Canton, Pennsylvania",PA,1,1,41.656464,-76.8532927,2
1022,"Carlisle, Pennsylvania",PA,1,0,40.201824,-77.1893888,1
1023,"Carrick, Pennsylvania",PA,1,0,40.3964583,-79.9903303,1
1024,"Catasauqua, Pennsylvania",PA,1,0,40.6548191,-75.4746273,1
1025,"Chambersburg, Pennsylvania",PA,2,1,39.9405903,-77.6598624,3
1026,"Chanceford, Pennsylvania",PA,1,1,39.9725187,-76.7483657,2
1027,"Cheltenham, Pennsylvania",PA,1,0,40.0609445,-75.0940625,1
1028,"Chester, Pennsylvania",PA,15,1,39.849557,-75.3557458,16
1029,"Clairton, Pennsylvania",PA,1,0,40.292292,-79.881715,1
1030,"Clymer, Pennsylvania",PA,1,0,40.6681213,-79.0116985,1
1031,"Columbia, Pennsylvania",PA,1,0,41.0389186,-76.4191791,1
1032,"Conewago, Pennsylvania",PA,1,0,40.1581491,-76.660246,1
1033,"Danielsville, Pennsylvania",PA,1,1,40.7945388,-75.5271292,2
1034,"Darby, Pennsylvania",PA,1,0,39.9184461,-75.2590721,1
1035,"Duquesne, Pennsylvania",PA,2,0,40.3814581,-79.8597708,2
1036,"East Berlin, Pennsylvania",PA,1,1,39.937597,-76.9785892,2
1037,"East Fallowfield, Pennsylvania",PA,1,0,40.4111493,-80.0230862,1
1038,"East Hills, Pennsylvania",PA,1,0,40.6584314,-75.3432351,1
1039,"East Huntingdon, Pennsylvania",PA,1,0,40.1444301,-79.582819,1
1040,"East Liberty, Pennsylvania",PA,1,0,40.4620685,-79.9239522,1
1041,"Easton, Pennsylvania",PA,3,1,40.6916081,-75.2099866,4
1042,"Ellwood City, Pennsylvania",PA,1,0,40.8617303,-80.2864515,1
1043,"Erie, Pennsylvania",PA,3,0,42.129461,-80.085239,3
1044,"Fairless Hills, Pennsylvania",PA,1,0,40.1795537,-74.8551644,1
1045,"Fairmount, Pennsylvania",PA,1,0,39.9522975,-75.190211,1
1046,"Fayette, Pennsylvania",PA,1,0,39.921022,-79.6663803,1
1047,"Forty Fort, Pennsylvania",PA,1,1,41.2789699,-75.8782519,2
1048,"Forward, Pennsylvania",PA,1,0,40.1314667,-78.8647451,1
1049,"Frankford, Pennsylvania",PA,1,0,40.0281674,-75.084896,1
1050,"Freeland, Pennsylvania",PA,1,1,41.0167508,-75.8971431,2
1051,"Garfield, Pennsylvania",PA,1,0,40.46868,-79.9386628,1
1052,"Germantown, Pennsylvania",PA,1,0,40.0434449,-75.1801775,1
1053,"Grantville, Pennsylvania",PA,1,1,40.377867,-76.6463566,2
1054,"Hampden, Pennsylvania",PA,1,0,40.215999,-76.997987,1
1055,"Hanover, Pennsylvania",PA,1,0,39.8063247,-76.9842735,1
1056,"Harrisburg, Pennsylvania",PA,15,2,40.2663107,-76.8861122,17
1057,"Harrisburgh, Pennsylvania",PA,1,0,40.2737002,-76.8844179,1
1058,"Hazelwood, Pennsylvania",PA,1,0,40.4131664,-79.9391633,1
1059,"Hazleton, Pennsylvania",PA,2,0,40.9646867,-75.9852789,2
1060,"Hempfield, Pennsylvania",PA,2,1,40.0548193,-76.4388523,3
1061,"Highspire, Pennsylvania",PA,1,0,40.2111133,-76.7902453,1
1062,"Hilltown, Pennsylvania",PA,1,0,40.3421681,-75.255433,1
1063,"Homer City, Pennsylvania",PA,1,0,40.5434007,-79.1622566,1
1064,"Homestead, Pennsylvania",PA,3,0,40.4059025,-79.9119948,3
1065,"Homewood, Pennsylvania",PA,7,0,40.813953,-80.32923,7
1066,"Horton, Pennsylvania",PA,2,1,41.6050664,-77.8413829,3
1067,"Hunting Park, Pennsylvania",PA,1,0,40.016501,-75.1437876,1
1068,"Huntingdon, Pennsylvania",PA,2,1,40.4847959,-78.0102813,3
1069,"Jefferson, Pennsylvania",PA,1,0,41.1125398,-79.0163349,1
1070,"Jim Thorpe, Pennsylvania",PA,1,0,40.8759235,-75.7324127,1
1071,"Johnstown, Pennsylvania",PA,3,0,40.3267407,-78.9219698,3
1072,"Kennedy, Pennsylvania",PA,1,0,41.680071,-77.4283124,1
1073,"Kensington, Pennsylvania",PA,3,0,39.9859458,-75.1318429,3
1074,"Kingsessing, Pennsylvania",PA,1,0,39.9522975,-75.190211,1
1075,"Lamar, Pennsylvania",PA,1,0,41.0161767,-77.5311034,1
1076,"Lancaster, Pennsylvania",PA,3,1,40.03997225,-76.3064177339532,4
1077,"Lancaster County, Pennsylvania",PA,1,0,40.01846345,-76.23365284664641,1
1078,"Larimer, Pennsylvania",PA,2,0,40.4625688,-79.9083841,2
1079,"Latrobe, Pennsylvania",PA,1,0,40.3211808,-79.3794811,1
1080,"Lebanon, Pennsylvania",PA,2,1,40.3465499,-76.4283812,3
1081,"Lehman, Pennsylvania",PA,2,0,41.3170249,-76.0224235,2
1082,"Liberty Twp, Pennsylvania",PA,1,0,41.0652675,-77.62306752628609,1
1083,"Lititz, Pennsylvania",PA,1,0,40.1571272,-76.3071674,1
1084,"Lower Paxton, Pennsylvania",PA,1,0,40.3187547,-76.7862453,1
1085,"Lower Pottsgrove, Pennsylvania",PA,1,0,40.2509313,-75.5929597,1
1086,"Mahanoy City, Pennsylvania",PA,1,1,40.8125881,-76.1416034,2
1087,"Malvern, Pennsylvania",PA,1,0,40.036202,-75.5138959,1
1088,"Manchester, Pennsylvania",PA,1,1,40.0595131,-76.7229552,2
1089,"Manheim, Pennsylvania",PA,1,0,40.1637359,-76.3952429,1
1090,"Manheim Township , Pennsylvania",PA,1,0,40.1637359,-76.3952429,1
1091,"Mattawana, Pennsylvania",PA,1,1,40.4961865,-77.7294372,2
1092,"McKeesport, Pennsylvania",PA,4,1,40.3478472,-79.864215,5
1093,"Mckeesport, Pennsylvania",PA,1,0,40.3478472,-79.864215,1
1094,"Mercer County, Pennsylvania",PA,1,0,41.3334542,-80.3014412,1
1095,"Middle Paxton, Pennsylvania",PA,1,0,40.3046694,-76.8182032,1
1096,"Milford Twp, Pennsylvania",PA,1,0,41.322316,-74.8023882,1
1097,"Monroeville, Pennsylvania",PA,2,0,40.4211798,-79.7881025,2
1098,"Moosic, Pennsylvania",PA,1,0,41.353413,-75.7382478,1
1099,"Morrisville, Pennsylvania",PA,1,0,40.2114978,-74.7879399,1
1100,"Mount Oliver, Pennsylvania",PA,1,1,40.4121097,-79.9856239828881,2
1101,"Munhall, Pennsylvania",PA,2,1,40.3922914,-79.9000499,3
1102,"Murrysville, Pennsylvania",PA,1,1,40.4284015,-79.697545,2
1103,"Nether Providence, Pennsylvania",PA,1,1,39.878245,-75.376656,2
1104,"New Castle, Pennsylvania",PA,2,1,41.0036719,-80.3470091,3
1105,"New Ringgold, Pennsylvania",PA,1,0,40.6859241,-75.9990972,1
1106,"Norristown, Pennsylvania",PA,3,0,40.121497,-75.3399048,3
1107,"North Philadelphia, Pennsylvania",PA,2,0,39.9969817,-75.1550837,2
1108,"North Union, Pennsylvania",PA,1,0,43.0686883,-77.7968023,1
1109,"North Versailles, Pennsylvania",PA,1,1,40.3797913,-79.8094916,2
1110,"Olney, Pennsylvania",PA,3,0,40.0412227,-75.1237863,3
1111,"Overbrook, Pennsylvania",PA,1,0,40.3842203,-79.9961442,1
1112,"Parkside, Pennsylvania",PA,1,0,39.864279,-75.3785252,1
1113,"Penn Hills, Pennsylvania",PA,4,0,40.4729398,-79.8176723,4
1114,"Philadelphia, Pennsylvania",PA,189,11,39.952335,-75.163789,200
1115,"Philipsburg, Pennsylvania",PA,1,1,40.0617403,-79.881158,2
1116,"Pittsburg, Pennsylvania",PA,1,0,37.777164,-88.848726,1
1117,"Pittsburgh, Pennsylvania",PA,24,6,40.4416941,-79.9900861,30
1118,"Port Vue, Pennsylvania",PA,2,0,40.3359028,-79.8697707,2
1119,"Pottstown, Pennsylvania",PA,2,0,40.2453741,-75.6496302,2
1120,"Pottsville, Pennsylvania",PA,1,0,40.6859385,-76.1949411,1
1121,"Rankin, Pennsylvania",PA,1,1,40.412569,-79.8792161,2
1122,"Reading, Pennsylvania",PA,7,0,40.3364587,-75.9288612,7
1123,"Ross Township, Pennsylvania",PA,3,0,40.520623,-80.00502430385642,3
1124,"Rouzerville, Pennsylvania",PA,1,1,39.7367609,-77.5349906,2
1125,"Saltsburg, Pennsylvania",PA,1,0,40.4864553,-79.4514299,1
1126,"Scranton, Pennsylvania",PA,1,0,41.408969,-75.6624122,1
1127,"Sewickley, Pennsylvania",PA,1,0,40.5364566,-80.1845031,1
1128,"Shaler, Pennsylvania",PA,1,1,40.161289,-80.486165,2
1129,"Sharon, Pennsylvania",PA,1,0,41.2331116,-80.4934035,1
1130,"Sheraden, Pennsylvania",PA,1,0,40.4595132,-80.0772776,1
1131,"Shippensburg, Pennsylvania",PA,1,0,40.0562262,-77.5139074,1
1132,"Somerset County, Pennsylvania",PA,1,1,40.0035466,-79.04253900158992,2
1133,"South Abington, Pennsylvania",PA,1,1,40.1206656,-75.1179512,2
1134,"South Huntingdon, Pennsylvania",PA,1,0,39.997146,-78.241966,1
1135,"South Londonderry, Pennsylvania",PA,1,0,40.2403764,-76.5372625,1
1136,"South Strabane, Pennsylvania",PA,1,0,40.1384049,-80.163391,1
1137,"Springettsbury, Pennsylvania",PA,1,0,39.9949864,-76.675922,1
1138,"St Thomas, Pennsylvania",PA,1,0,39.9175908,-77.7977726,1
1139,"Summit, Pennsylvania",PA,1,0,39.968421,-78.0227807,1
1140,"Swissvale, Pennsylvania",PA,1,0,40.4236801,-79.8828275,1
1141,"Tacony, Pennsylvania",PA,1,0,40.0312228,-75.0443386,1
1142,"Texas, Pennsylvania",PA,1,0,41.5350719,-77.2527545,1
1143,"Torrance, Pennsylvania",PA,1,0,40.4172913,-79.2228123,1
1144,"Uniontown, Pennsylvania",PA,3,0,39.900076,-79.7164326,3
1145,"Upper Chichester, Pennsylvania",PA,1,0,39.8571,-75.4592,1
1146,"Upper Darby, Pennsylvania",PA,2,1,39.9284459,-75.2737955,3
1147,"Warwick, Pennsylvania",PA,1,0,40.1623168,-76.3069013,1
1148,"Washington, Pennsylvania",PA,4,1,40.17396,-80.2461714,5
1149,"Washington County, Pennsylvania",PA,1,0,40.2167415,-80.23898460654159,1
1150,"Wernersville, Pennsylvania",PA,1,0,40.3300924,-76.0804972,1
1151,"West Chester, Pennsylvania",PA,1,0,39.960185,-75.6054709977898,1
1152,"West Manheim Township, Pennsylvania",PA,1,0,40.1637359,-76.3952429,1
1153,"West York, Pennsylvania",PA,1,0,39.9525985,-76.7513566,1
1154,"Westfield, Pennsylvania",PA,1,1,41.9192368,-77.5388744,2
1155,"Wilkes-Barre, Pennsylvania",PA,10,2,41.2464824,-75.8817316,12
1156,"Williamsport, Pennsylvania",PA,4,0,41.2493292,-77.0027671,4
1157,"Williamstown, Pennsylvania",PA,1,0,40.5800868,-76.617742,1
1158,"York, Pennsylvania",PA,8,1,39.962398,-76.727392,9
1159,"York City, Pennsylvania",PA,3,0,39.9543252,-76.7100642,3
1160,"Aliquippa, Pennsylvania",PA,0,1,40.618174,-80.2510131448239,1
1161,"Coatesville, Pennsylvania",PA,0,1,39.9831616,-75.8238355,1
1162,"Connellsville, Pennsylvania",PA,0,1,40.0178522,-79.5894828,1
1163,"Feasterville, Pennsylvania",PA,0,1,40.1514665,-74.98867493406071,1
1164,"Holly Hill, Pennsylvania",PA,0,1,40.1626096,-74.838775,1
1165,"Lower Macungie, Pennsylvania",PA,0,1,40.543813,-75.5319152,1
1166,"Lower Paxton Township , Pennsylvania",PA,0,1,40.3187547,-76.7862453,1
1167,"Muhlenberg, Pennsylvania",PA,0,1,40.3831486,-75.9388201,1
1168,"Oil City, Pennsylvania",PA,0,1,41.4339484,-79.7064413,1
1169,"Phillipsburg, Pennsylvania",PA,0,1,40.6933994,-80.2820062,1
1170,"Simpson, Pennsylvania",PA,0,1,41.8367297,-78.5880801,1
1171,"Tidioute, Pennsylvania",PA,0,1,41.6850604,-79.4031034,1
1172,"Warminster, Pennsylvania",PA,0,1,40.2067751,-75.0996159,1
1173,"Acworth, Georgia",GA,2,1,34.0659329,-84.6768796,3
1174,"Adairsville, Georgia",GA,1,1,34.3687021,-84.9341093,2
1175,"Aiken County, Georgia",GA,1,0,33.6005783,-81.6035062,1
1176,"Albany, Georgia",GA,5,0,31.5785074,-84.155741,5
1177,"Alpharetta, Georgia",GA,2,0,34.0709576,-84.2747329,2
1178,"Athens, Georgia",GA,1,0,33.9595974,-83.376678,1
1179,"Atlanta, Georgia",GA,60,6,33.7490987,-84.3901849,66
1180,"Augusta, Georgia",GA,12,3,33.4709714,-81.9748429,15
1181,"Austell, Georgia",GA,2,1,33.8126059,-84.6343783,3
1182,"Baker County, Georgia",GA,1,0,31.2638035,-84.49868355963181,1
1183,"Baxley, Georgia",GA,1,0,31.7782514,-82.3484618,1
1184,"Bethlehem, Georgia",GA,1,1,34.9020296,-84.0774118,2
1185,"Bibb County, Georgia",GA,1,0,32.8071935,-83.68659779666302,1
1186,"Blairsville, Georgia",GA,1,2,34.8761989,-83.9582412,3
1187,"Bonaire, Georgia",GA,1,0,32.5437575,-83.5960162,1
1188,"Brunswick, Georgia",GA,3,0,31.1499528,-81.4914894,3
1189,"Buford, Georgia",GA,1,2,34.1206564,-84.0043513,3
1190,"Cairo, Georgia",GA,3,0,30.8774132,-84.2012897,3
1191,"Calhoun, Georgia",GA,1,0,31.5040637,-84.4534229,1
1192,"Canton, Georgia",GA,2,0,34.2367621,-84.4907621,2
1193,"Carnesville, Georgia",GA,1,0,34.3698266,-83.235155,1
1194,"Cartersville, Georgia",GA,2,0,34.180855,-84.7529170994188,2
1195,"Cascade, Georgia",GA,1,0,34.906322,-85.205915,1
1196,"Catoosa County, Georgia",GA,1,0,34.8776399,-85.1445279220676,1
1197,"Cedartown, Georgia",GA,1,0,34.018554,-85.25593920522498,1
1198,"Cherokee County, Georgia",GA,2,0,34.2428725,-84.4561937549523,2
1199,"Chickamauga, Georgia",GA,1,0,34.871188,-85.2907896,1
1200,"Clarkesville, Georgia",GA,1,0,34.6125971,-83.5248933,1
1201,"Claxton, Georgia",GA,1,0,32.1615815,-81.9040047,1
1202,"Clayton County, Georgia",GA,9,2,33.4362245,-84.3142675,11
1203,"Cobb, Georgia",GA,1,1,33.9373948,-84.5732006,2
1204,"Cobb County, Georgia",GA,2,1,33.915655,-84.581456285374,3
1205,"Cobb County , Georgia",GA,1,0,33.915655,-84.581456285374,1
1206,"College Park, Georgia",GA,3,0,33.6534427,-84.4493725,3
1207,"Columbus, Georgia",GA,15,5,32.4609764,-84.9877094,20
1208,"Conley, Georgia",GA,1,0,33.6358095,-84.3294395574209,1
1209,"Covington, Georgia",GA,2,0,33.5967815,-83.8601827,2
1210,"Coweta County, Georgia",GA,1,0,33.351366,-84.77989880271902,1
1211,"Crawford County, Georgia",GA,1,0,32.695324,-83.9684883309027,1
1212,"Dacula, Georgia",GA,1,1,33.9887165,-83.8979573,2
1213,"Dallas, Georgia",GA,1,0,33.917713,-84.85739062975091,1
1214,"Dalton, Georgia",GA,1,0,34.723883,-84.86855458466461,1
1215,"DeKalb, Georgia",GA,2,1,34.9711865,-85.279123,3
1216,"DeKalb County, Georgia",GA,8,2,33.79274945,-84.22015371673109,10
1217,"Decatur, Georgia",GA,4,0,33.7737582,-84.296069,4
1218,"Dekalb County, Georgia",GA,3,0,33.79274945,-84.22015371673109,3
1219,"Donalsonville, Georgia",GA,1,1,31.0404625,-84.8790911,2
1220,"East Point, Georgia",GA,4,2,33.6795531,-84.4393724,6
1221,"Elbert County, Georgia",GA,1,0,34.1106692,-82.6953123,1
1222,"Emerson, Georgia",GA,1,0,30.7760298,-83.631827,1
1223,"Fayetteville, Georgia",GA,1,0,33.4487257,-84.4549262,1
1224,"Fitzgerald, Georgia",GA,1,1,31.7149082,-83.2526545,2
1225,"Flowery Branch, Georgia",GA,1,0,34.1851017,-83.9251809,1
1226,"Forest Park, Georgia",GA,1,0,33.6220542,-84.3690918,1
1227,"Forsyth, Georgia",GA,2,0,34.2484331,-83.9748056,2
1228,"Fulton County, Georgia",GA,5,1,33.844221,-84.40353194571182,6
1229,"Gainesville, Georgia",GA,3,1,34.2435175,-83.82786602191399,4
1230,"Glenwood, Georgia",GA,1,0,33.9292825,-83.4026591,1
1231,"Griffin, Georgia",GA,3,0,33.2467807,-84.2640904,3
1232,"Grovetown, Georgia",GA,1,0,33.4504157,-82.1981764,1
1233,"Gwinnett, Georgia",GA,3,1,33.9190653,-84.0167423,4
1234,"Gwinnett County, Georgia",GA,4,1,33.95775315,-84.0424256042861,5
1235,"Hahira, Georgia",GA,1,0,30.9913064,-83.3726575,1
1236,"Hapeville, Georgia",GA,2,0,33.660109,-84.4102046,2
1237,"Hawkinsville, Georgia",GA,1,1,32.2837731,-83.4721177,2
1238,"Henry County, Georgia",GA,2,0,33.472561,-84.11966891492479,2
1239,"Homerville, Georgia",GA,1,0,31.0365983,-82.7470849,1
1240,"Houston County, Georgia",GA,2,0,32.487669,-83.6449357626543,2
1241,"Jefferson, Georgia",GA,1,1,32.9140428,-82.3089137,2
1242,"Jones County, Georgia",GA,1,0,33.013691,-83.55754716841298,1
1243,"Jonesboro, Georgia",GA,1,0,33.5215013,-84.3538128,1
1244,"LaFayette, Georgia",GA,1,0,34.7048022,-85.2818998,1
1245,"Lagrange, Georgia",GA,1,0,33.036685,-85.0328815195532,1
1246,"Lanier County, Georgia",GA,1,0,31.017897,-83.07873124642498,1
1247,"Laurens County, Georgia",GA,1,1,32.431744,-82.9230607971245,2
1248,"Leesburg, Georgia",GA,1,0,32.5362511,-84.8957642,1
1249,"Lilburn, Georgia",GA,2,0,33.8901036,-84.1429719,2
1250,"Lincoln County, Georgia",GA,1,0,33.8108325,-82.45033516423459,1
1251,"Lithonia, Georgia",GA,3,0,33.7123305,-84.1051939,3
1252,"Louisville, Georgia",GA,1,0,33.0015407,-82.4112377,1
1253,"Macon, Georgia",GA,8,2,32.8406946,-83.6324022,10
1254,"Marietta, Georgia",GA,5,5,33.952602,-84.5499327,10
1255,"McDonough, Georgia",GA,2,0,33.4473361,-84.1468616,2
1256,"Milledgeville, Georgia",GA,2,1,33.0801429,-83.2320991,3
1257,"Milton, Georgia",GA,1,0,34.1321631,-84.300666,1
1258,"Moultrie, Georgia",GA,3,0,31.1811523,-83.7878809,3
1259,"Norcross, Georgia",GA,4,0,33.9412127,-84.2135309,4
1260,"Paulding County, Georgia",GA,1,0,33.928394,-84.8866316388338,1
1261,"Perry, Georgia",GA,1,1,32.4586695,-83.7319658,2
1262,"Pickens County, Georgia",GA,1,0,34.4685,-84.48652908407401,1
1263,"Pike County, Georgia",GA,1,0,33.0885545,-84.38285753596391,1
1264,"Pooler, Georgia",GA,1,0,32.114441,-81.2197075172913,1
1265,"Quitman, Georgia",GA,1,0,31.7943293,-84.9462146,1
1266,"Richmond County, Georgia",GA,2,0,33.277089,-81.8944597,2
1267,"Richmond Hill, Georgia",GA,1,1,31.9382652,-81.3034433,2
1268,"Rincon, Georgia",GA,1,0,32.2960289,-81.2353905,1
1269,"Ringgold, Georgia",GA,1,0,34.91591,-85.1091173,1
1270,"Riverdale, Georgia",GA,1,1,33.5726113,-84.4132594,2
1271,"Roberta, Georgia",GA,1,0,32.7219973,-84.0130926,1
1272,"Rockdale County, Georgia",GA,1,0,33.6564028,-84.01174753394301,1
1273,"Rockmart, Georgia",GA,1,0,34.0026005,-85.0416133,1
1274,"Sandy Springs, Georgia",GA,3,2,33.878567,-84.44331813636359,5
1275,"Sardis, Georgia",GA,1,0,32.975157,-81.757613,1
1276,"Savannah, Georgia",GA,16,3,32.017073,-81.2906160076233,19
1277,"Smyrna, Georgia",GA,2,1,33.8839926,-84.5143761,3
1278,"Snellville, Georgia",GA,1,0,33.857328,-84.0199108,1
1279,"St Marys, Georgia",GA,1,0,30.7480875,-81.5210867270753,1
1280,"Statesboro, Georgia",GA,1,0,32.420648,-81.775859,1
1281,"Stockbridge, Georgia",GA,2,0,33.5442781,-84.2338093,2
1282,"Stone Mountain, Georgia",GA,1,0,33.8081083,-84.1701957,1
1283,"Taylor County, Georgia",GA,1,0,32.559534,-84.2450614621884,1
1284,"Thomasville, Georgia",GA,1,0,30.8365815,-83.9787808,1
1285,"Thunderbolt, Georgia",GA,1,1,32.0335445,-81.0498342,2
1286,"Tifton, Georgia",GA,2,0,31.471498,-83.48387498085661,2
1287,"Toccoa, Georgia",GA,1,3,34.5773206,-83.3323851,4
1288,"Valdosta, Georgia",GA,1,0,30.8327022,-83.2784851,1
1289,"Villa Rica, Georgia",GA,2,0,33.732052,-84.9191081,2
1290,"Walker County, Georgia",GA,1,0,34.7857337,-85.32667628776571,1
1291,"Warner Robins, Georgia",GA,6,0,32.57958945,-83.66805713140579,6
1292,"Waycross, Georgia",GA,3,0,31.2135511,-82.3540178,3
1293,"Winder, Georgia",GA,1,0,33.991042,-83.7183730117372,1
1294,"Woodstock, Georgia",GA,2,0,34.1014873,-84.5193754,2
1295,"Ashburn, Georgia",GA,0,1,31.7060134,-83.653224,1
1296,"Dawson, Georgia",GA,0,1,34.4142624,-84.019254,1
1297,"East Atlanta, Georgia",GA,0,1,33.753401,-84.3895025,1
1298,"Hinesville, Georgia",GA,0,1,31.846877,-81.5959453,1
1299,"Lawrenceville, Georgia",GA,0,1,33.9562149,-83.9879625,1
1300,"Newnan, Georgia",GA,0,1,33.3806716,-84.7996573,1
1301,"Union City, Georgia",GA,0,1,33.5870558,-84.5424299,1
1302,"Woodbury, Georgia",GA,0,1,32.9837394,-84.5827031,1
1303,"Adams County, Colorado",CO,3,1,39.8714085,-104.2701374,4
1304,"Alamosa, Colorado",CO,2,0,37.467443,-105.86829610206,2
1305,"Aspen, Colorado",CO,1,1,39.1984225,-106.840617433827,2
1306,"Aurora, Colorado",CO,10,3,39.565936,-104.744371275362,13
1307,"Boulder, Colorado",CO,3,0,40.0149856,-105.2705456,3
1308,"Cedaredge, Colorado",CO,1,0,38.9016487,-107.926454,1
1309,"Clifton, Colorado",CO,1,0,39.080548,-108.479504,1
1310,"Colorado Springs, Colorado",CO,22,4,38.8338816,-104.8213634,26
1311,"Crawford, Colorado",CO,1,0,38.7038767,-107.6089466,1
1312,"Denver, Colorado",CO,20,8,39.7391536,-104.9847034,28
1313,"Douglas County, Colorado",CO,1,0,39.34801765,-104.917086672243,1
1314,"Durango, Colorado",CO,1,0,37.2376805,-107.82228026819901,1
1315,"Edgewater, Colorado",CO,1,0,39.754808,-105.066078,1
1316,"El Paso, Colorado",CO,1,0,38.8338816,-104.8213634,1
1317,"El Paso County, Colorado",CO,1,1,38.8243655,-104.560228754984,2
1318,"Fountain, Colorado",CO,1,0,38.72483515,-104.64514200604,1
1319,"Frederick, Colorado",CO,1,0,40.0991506,-104.9371993,1
1320,"Fruita, Colorado",CO,1,0,39.1588697,-108.7289883,1
1321,"Ft Collins, Colorado",CO,1,0,40.6159185,-105.07041114130399,1
1322,"Glenwood Springs, Colorado",CO,1,0,39.53203,-107.32454076280099,1
1323,"Golden, Colorado",CO,2,0,39.743396,-105.21480660775299,2
1324,"Grand Junction, Colorado",CO,3,0,39.059542,-108.587185434739,3
1325,"Greenwood Village, Colorado",CO,1,1,39.60959,-104.929576,2
1326,"Lakewood, Colorado",CO,1,0,39.6310755,-105.11005819844699,1
1327,"Larimer County, Colorado",CO,1,0,40.6286398,-105.446270317866,1
1328,"Littleton, Colorado",CO,1,1,39.5413825,-105.10345981140499,2
1329,"Longmont, Colorado",CO,4,4,40.1529745,-105.057968824598,8
1330,"Monte Vista, Colorado",CO,1,0,37.5799013,-106.1485185,1
1331,"Montrose, Colorado",CO,1,1,38.5128765,-107.923390697403,2
1332,"Monument, Colorado",CO,1,0,39.04932405,-104.851419571497,1
1333,"Peyton, Colorado",CO,1,2,39.0288809,-104.4830238,3
1334,"Pueblo, Colorado",CO,3,0,38.2014515,-104.579887070135,3
1335,"Rye, Colorado",CO,1,2,37.9236194,-104.9302662,3
1336,"Salada, Colorado",CO,1,0,27.1699051,-98.09226310099541,1
1337,"Salida, Colorado",CO,1,0,38.5227255,-106.018125024685,1
1338,"Security Widefield, Colorado",CO,1,0,38.7064693,-104.708523867496,1
1339,"Security-Widefield, Colorado",CO,1,0,38.7490101,-104.711951452246,1
1340,"Steamboat Springs, Colorado",CO,1,0,40.484171,-106.82920806287001,1
1341,"Strasburg, Colorado",CO,1,0,39.73121,-104.349278729191,1
1342,"Sugar City, Colorado",CO,1,0,38.2319494,-103.6630011,1
1343,"Thornton, Colorado",CO,1,0,39.8680412,-104.9719243,1
1344,"Trinidad, Colorado",CO,1,1,37.1798955,-104.48151479009,2
1345,"Westminster, Colorado",CO,1,2,39.8936685,-105.072111818405,3
1346,"Woodland Park, Colorado",CO,1,0,38.9938808,-105.0569301,1
1347,"Black Forest, Colorado",CO,0,2,39.0140025,-104.7011409,2
1348,"Centennial, Colorado",CO,0,1,39.567622,-104.978108652017,1
1349,"Cortez, Colorado",CO,0,1,37.349559,-108.57116647834499,1
1350,"Eagle County, Colorado",CO,0,1,39.63719,-106.64516704926599,1
1351,"Federal Heights, Colorado",CO,0,1,39.86754425,-105.02002153860599,1
1352,"Olney Springs, Colorado",CO,0,1,38.1661162,-103.9446792,1
1353,"Advance, Missouri",MO,1,0,37.1044958,-89.9106494,1
1354,"Affton, Missouri",MO,1,0,38.5506084,-90.3331719,1
1355,"Alton, Missouri",MO,1,0,36.6942252,-91.3993039,1
1356,"Arnold, Missouri",MO,1,0,38.4328317,-90.3776187,1
1357,"Asbury, Missouri",MO,1,1,37.2744997,-94.6055102,2
1358,"Ashland, Missouri",MO,1,0,38.7744802,-92.2571304,1
1359,"Ballwin, Missouri",MO,1,0,38.5950182,-90.5469133,1
1360,"Bellefontaine Neighbors, Missouri",MO,2,0,38.7403281,-90.2265001,2
1361,"Berkeley, Missouri",MO,2,0,38.7544952,-90.3312256,2
1362,"Branson, Missouri",MO,1,2,36.6436797,-93.2185183,3
1363,"Breckenridge, Missouri",MO,1,0,39.7622337,-93.8043822,1
1364,"Cape Girardeau, Missouri",MO,6,1,37.3058839,-89.5181476,7
1365,"Clay County, Missouri",MO,2,1,39.3187409,-94.4046405,3
1366,"Climax Springs, Missouri",MO,1,1,38.1041971,-93.0501945,2
1367,"Columbia, Missouri",MO,3,0,38.9458718,-92.3276836,3
1368,"Craig, Missouri",MO,1,0,40.1947194,-95.3710903,1
1369,"Dexter, Missouri",MO,1,0,36.7958866,-89.9578688,1
1370,"Douglas County, Missouri",MO,1,0,36.931753,-92.49831279165069,1
1371,"Edgar Springs, Missouri",MO,1,0,37.7044863,-91.8665452,1
1372,"Edina, Missouri",MO,1,0,40.1675386,-92.1726821,1
1373,"Eureka, Missouri",MO,1,0,38.5025537,-90.6279044,1
1374,"Fairdealing, Missouri",MO,2,0,36.6628345,-90.616783,2
1375,"Fairview Heights, Missouri",MO,1,0,37.3886096,-79.138499,1
1376,"Ferguson, Missouri",MO,1,0,38.7442175,-90.3053915,1
1377,"Festus, Missouri",MO,1,0,38.2207112,-90.3959504,1
1378,"Florissant, Missouri",MO,2,0,38.789217,-90.322614,2
1379,"Franklin County, Missouri",MO,3,0,38.457697,-91.05245379057249,3
1380,"French Village, Missouri",MO,1,0,37.9725528,-90.3898452,1
1381,"Gladstone, Missouri",MO,1,0,39.2038918,-94.554677,1
1382,"Glasgow Village, Missouri",MO,1,0,38.753661,-90.1984434,1
1383,"Grandview, Missouri",MO,1,0,38.8858407,-94.5330096,1
1384,"Greenville, Missouri",MO,1,0,37.127274,-90.4501137,1
1385,"Hopkins, Missouri",MO,1,0,40.5508222,-94.8194151,1
1386,"Huntsville, Missouri",MO,1,0,39.4405891,-92.5451834,1
1387,"Hyde Park, Missouri",MO,1,0,38.66163075,-90.20198291625009,1
1388,"Independence, Missouri",MO,7,0,39.0911161,-94.4155068,7
1389,"Jefferson City, Missouri",MO,1,0,38.5767026,-92.1735165,1
1390,"Jennings, Missouri",MO,2,1,38.719184,-90.2611199,3
1391,"Joplin, Missouri",MO,3,0,37.0710595,-94.46060608635591,3
1392,"Kansas City, Missouri",MO,87,11,39.0844687,-94.5630298,98
1393,"Kinloch, Missouri",MO,1,0,38.7406065,-90.3253922,1
1394,"Kirkwood, Missouri",MO,1,0,38.5833862,-90.406785,1
1395,"Maywood, Missouri",MO,1,1,39.0950048,-94.4455076,2
1396,"Mineral Point, Missouri",MO,1,0,37.9447722,-90.7242964,1
1397,"Nixa, Missouri",MO,1,0,37.0433863,-93.294353,1
1398,"Noble, Missouri",MO,2,0,36.7475599,-92.5698875,2
1399,"Park Hills, Missouri",MO,2,0,37.854218,-90.5181804,2
1400,"Perryville, Missouri",MO,1,1,37.7242202,-89.8612196,2
1401,"Pike County, Missouri",MO,1,0,39.371216,-91.1729996942115,1
1402,"Riverside, Missouri",MO,1,0,38.2867212,-90.3801199,1
1403,"Senath, Missouri",MO,1,0,36.1342336,-90.1598183,1
1404,"Springfield, Missouri",MO,8,3,37.2153307,-93.2982521,11
1405,"St Louis, Missouri",MO,50,10,38.6272733,-90.1978889,60
1406,"St Louis County, Missouri",MO,1,0,46.818539,-92.094288,1
1407,"St. Charles, Missouri",MO,1,0,38.783194,-90.4823681,1
1408,"St. Louis, Missouri",MO,58,8,38.6272733,-90.1978889,66
1409,"St. Louis County, Missouri",MO,1,0,38.6388021,-90.5188674903196,1
1410,"St.Louis, Missouri",MO,1,0,38.6272733,-90.1978889,1
1411,"Steelville, Missouri",MO,1,0,37.9680999,-91.354868,1
1412,"Trenton, Missouri",MO,1,0,40.0789018,-93.6166074,1
1413,"University City, Missouri",MO,2,0,38.6558849,-90.3092813,2
1414,"Versailles, Missouri",MO,1,1,38.4314141,-92.8410274,2
1415,"Warrensburg, Missouri",MO,1,0,38.7627893,-93.7360498,1
1416,"Webster Groves, Missouri",MO,1,0,38.5864705,-90.35577873292709,1
1417,"Wentzville, Missouri",MO,1,1,38.81144,-90.8529107,2
1418,"West Plains, Missouri",MO,1,0,36.7281154,-91.8523711,1
1419,"Willow Springs, Missouri",MO,1,0,36.9922768,-91.9698742,1
1420,"Cape Girardeau County, Missouri",MO,0,1,37.3657435,-89.6451070254435,1
1421,"Eolia, Missouri",MO,0,1,39.2358794,-91.0081918,1
1422,"Hannibal, Missouri",MO,0,1,39.7083789,-91.3584816,1
1423,"Hazelwood, Missouri",MO,0,1,38.7714396,-90.3709489,1
1424,"Knob Noster, Missouri",MO,0,1,38.7666798,-93.5585458,1
1425,"Liberty, Missouri",MO,0,1,39.2461138,-94.4191177,1
1426,"Mount Vernon, Missouri",MO,0,1,37.1036666,-93.8185401,1
1427,"New London, Missouri",MO,0,1,39.5853222,-91.4009835,1
1428,"O'Fallon, Missouri",MO,0,1,38.8106075,-90.6998477,1
1429,"Raymore, Missouri",MO,0,1,38.801953,-94.4527294,1
1430,"Rogersville, Missouri",MO,0,1,37.1169951,-93.0557343,1
1431,"Sarcoxie, Missouri",MO,0,1,37.0692266,-94.1166043,1
1432,"Sikeston, Missouri",MO,0,3,36.876719,-89.5878579,3
1433,"St. Robert, Missouri",MO,0,1,37.8280961,-92.1776664,1
1434,"Afton, Virginia",VA,1,0,38.0323598,-78.839189,1
1435,"Alexandria, Virginia",VA,4,0,38.81474785,-77.0902443767923,4
1436,"Alleghany Co., Virginia",VA,1,0,37.7805575,-80.0308987256353,1
1437,"Alleghany County, Virginia",VA,1,1,37.7805575,-80.0308987256353,2
1438,"Arlington, Virginia",VA,1,1,38.8903961,-77.0841585,2
1439,"Bassett, Virginia",VA,2,1,36.7593037,-79.9903195,3
1440,"Bedford County, Virginia",VA,1,0,37.3150005,-79.56432795346721,1
1441,"Boones Mill, Virginia",VA,1,1,37.1168053,-79.9553136,2
1442,"Campbell County, Virginia",VA,1,1,37.2287445,-79.09810284662942,2
1443,"Carroll County, Virginia",VA,2,0,36.7445815,-80.7419420466228,2
1444,"Chantilly, Virginia",VA,2,1,38.8943792,-77.4305118,3
1445,"Charleston, Virginia",VA,1,0,38.3498221,-81.6326301,1
1446,"Charlottesville, Virginia",VA,2,0,38.029306,-78.4766781,2
1447,"Chesapeake, Virginia",VA,4,3,36.8190369,-76.2749399,7
1448,"Chesterfield, Virginia",VA,4,4,37.2148597,-79.9839263,8
1449,"Chesterfield County, Virginia",VA,2,0,37.3859982,-77.578509,2
1450,"Christiansburg, Virginia",VA,1,0,37.1298517,-80.4089389,1
1451,"Colonial Heights, Virginia",VA,1,0,37.244039,-77.4102607,1
1452,"Danville, Virginia",VA,3,0,36.5859718,-79.3950228,3
1453,"Dinwiddie, Virginia",VA,2,0,37.0779278,-77.586655,2
1454,"Dinwiddie County, Virginia",VA,1,0,37.0727045,-77.64801641718729,1
1455,"Ettrick, Virginia",VA,1,0,37.244418,-77.42919869099009,1
1456,"Falls Church, Virginia",VA,2,1,38.882334,-77.1710914,3
1457,"Farmville, Virginia",VA,1,0,37.3020966,-78.3919403,1
1458,"Fluvanna, Virginia",VA,1,0,37.8488527,-78.2789994,1
1459,"Fredericksburg, Virginia",VA,2,0,38.3031837,-77.4605399,2
1460,"Gladys, Virginia",VA,1,0,37.1631988,-79.0736301,1
1461,"Goochland, Virginia",VA,1,0,37.6843129,-77.885274,1
1462,"Goochland County, Virginia",VA,1,0,37.7355915,-77.9711432933034,1
1463,"Hampton, Virginia",VA,15,4,37.0298687,-76.3452218,19
1464,"Harrisonburg, Virginia",VA,1,0,38.4440835,-78.8719367,1
1465,"Henrico, Virginia",VA,3,0,37.5455191,-77.4234124,3
1466,"Henrico County, Virginia",VA,2,1,37.5455191,-77.4234124,3
1467,"Herndon, Virginia",VA,3,1,38.9695316,-77.3859479,4
1468,"Hopewell, Virginia",VA,3,2,37.3043154,-77.2872001,5
1469,"Isle of Wight, Virginia",VA,2,0,36.8953677,-76.7248143,2
1470,"Jarratt, Virginia",VA,1,0,36.8143161,-77.468313,1
1471,"King and Queen County, Virginia",VA,1,1,37.7196754,-76.8794158,2
1472,"Lake Ridge, Virginia",VA,1,0,38.687894,-77.2977618,1
1473,"Lynchburg, Virginia",VA,1,1,37.4137536,-79.1422464,2
1474,"Machipongo, Virginia",VA,1,0,37.4059695,-75.9015974,1
1475,"Manassas, Virginia",VA,1,0,38.7509488,-77.4752667,1
1476,"Martinsville, Virginia",VA,2,0,36.6915262,-79.8725386,2
1477,"Midlothian, Virginia",VA,1,0,37.5059815,-77.6491579,1
1478,"Millboro, Virginia",VA,1,0,37.975128,-79.6028226,1
1479,"Mount Vernon, Virginia",VA,1,0,38.7162643,-77.1065427552382,1
1480,"Newport News, Virginia",VA,11,1,36.9787588,-76.428003,12
1481,"Norfolk, Virginia",VA,18,0,36.8468146,-76.2852183,18
1482,"Parksley, Virginia",VA,1,0,37.7820754,-75.6535446,1
1483,"Pearisburg, Virginia",VA,1,0,37.3265112,-80.7350712,1
1484,"Penhook, Virginia",VA,1,1,36.9823655,-79.6280848,2
1485,"Petersburg, Virginia",VA,5,0,37.227928,-77.4019268,5
1486,"Pittsylvania County, Virginia",VA,1,0,36.83911675,-79.3952175896372,1
1487,"Portsmouth, Virginia",VA,5,0,36.8354258,-76.2982742,5
1488,"Pratts, Virginia",VA,1,0,38.3476292,-78.2700042,1
1489,"Prospect, Virginia",VA,2,0,37.3029279,-78.5591661,2
1490,"Pulaski, Virginia",VA,3,0,37.0580572,-80.7297289,3
1491,"Quantico, Virginia",VA,3,1,38.5228285,-77.29016705117981,4
1492,"Reston, Virginia",VA,1,0,38.9584435,-77.3582532,1
1493,"Richmond, Virginia",VA,38,1,37.541239,-77.4420183,39
1494,"Richmond County, Virginia",VA,1,0,37.9476108,-76.7161921,1
1495,"Roanoke, Virginia",VA,11,2,37.270973,-79.9414313,13
1496,"Russell County, Virginia",VA,1,0,36.9268515,-82.0730055923591,1
1497,"Salem, Virginia",VA,3,1,37.293378,-80.054667,4
1498,"Smithfield, Virginia",VA,1,0,36.9823709,-76.6310661,1
1499,"Spotsylvania , Virginia",VA,1,0,38.200965,-77.589154,1
1500,"Springfield, Virginia",VA,1,0,38.7892801,-77.1872036,1
1501,"Staunton, Virginia",VA,1,0,38.149576,-79.0716958,1
1502,"Stephens City, Virginia",VA,2,0,39.0834398,-78.2180567,2
1503,"Sterling, Virginia",VA,3,1,39.0016194,-77.4032011,4
1504,"Suffolk, Virginia",VA,6,3,36.7282096,-76.5835703,9
1505,"Sussex, Virginia",VA,1,0,36.9096897,-77.2741121,1
1506,"Sussex County, Virginia",VA,1,0,36.9076065,-77.2957550092011,1
1507,"Vienna, Virginia",VA,1,0,38.9013013,-77.2651585,1
1508,"Virginia Beach, Virginia",VA,16,1,36.7956695,-76.05105148319218,17
1509,"Washington County, Virginia",VA,1,0,36.76227,-81.954383065886,1
1510,"Woodbridge, Virginia",VA,1,0,38.6581723,-77.2497049,1
1511,"York, Virginia",VA,1,0,37.1443109,-76.3831789,1
1512,"Yorktown, Virginia",VA,1,0,37.2387577,-76.5096706,1
1513,"hampton, Virginia",VA,1,0,37.0298687,-76.3452218,1
1514,"Ashburn, Virginia",VA,0,1,39.0437192,-77.4874899,1
1515,"Botetourt, Virginia",VA,0,1,37.5520825,-79.8029569,1
1516,"Botetourt County, Virginia",VA,0,1,37.5554865,-79.7545992459847,1
1517,"Craig County, Virginia",VA,0,1,37.489433,-80.1868178994127,1
1518,"Crozet, Virginia",VA,0,1,38.0695816,-78.7005751,1
1519,"Dumfries, Virginia",VA,0,1,38.5676202,-77.3280382,1
1520,"King's Fork, Virginia",VA,0,1,36.7801495,-76.6246752,1
1521,"Loudoun County, Virginia",VA,0,1,39.0853441,-77.66528861695379,1
1522,"Stafford, Virginia",VA,0,1,38.4167265,-77.4579783,1
1523,"Yorktown , Virginia",VA,0,1,37.2387577,-76.5096706,1
1524,"Ahwatukee, Arizona",AZ,1,0,33.3417137,-111.984033,1
1525,"Apache Junction, Arizona",AZ,1,0,33.4150551,-111.5495868,1
1526,"Avondale, Arizona",AZ,3,0,33.4359181,-112.3405052,3
1527,"Buckeye, Arizona",AZ,2,0,33.426213,-112.550047978235,2
1528,"Bullhead City, Arizona",AZ,1,0,35.1230335,-114.54025319111601,1
1529,"Casa Grande, Arizona",AZ,1,2,32.8870615,-111.736270547739,3
1530,"Chandler, Arizona",AZ,3,1,33.3568555,-111.8634748,4
1531,"Cochise County, Arizona",AZ,3,0,31.88086475,-109.74779832944999,3
1532,"Dolan Springs, Arizona",AZ,2,0,35.598353,-114.275650603419,2
1533,"Everett, Arizona",AZ,1,0,35.1801173,-114.05259,1
1534,"Florence, Arizona",AZ,1,0,33.0598235,-111.430441267185,1
1535,"Gilbert, Arizona",AZ,2,0,33.295215,-111.73793883628201,2
1536,"Glendale, Arizona",AZ,9,3,33.55893,-112.404682724138,12
1537,"Goodyear, Arizona",AZ,1,0,33.435533,-112.3579609,1
1538,"Kingman, Arizona",AZ,2,0,35.23069,-113.99925610469299,2
1539,"Laveen, Arizona",AZ,1,1,33.3628228,-112.169317,2
1540,"Maryvale, Arizona",AZ,1,0,33.5019864,-112.1776524,1
1541,"Mayer, Arizona",AZ,1,1,34.4263595,-112.236720379163,2
1542,"Mesa, Arizona",AZ,10,4,33.436568,-111.586066539042,14
1543,"Mohave Valley, Arizona",AZ,1,1,34.9426755,-114.595720917011,2
1544,"Oro Valley, Arizona",AZ,2,1,32.3909071,-110.966488,3
1545,"Palominas, Arizona",AZ,1,0,31.3798232,-110.1184106,1
1546,"Payson, Arizona",AZ,1,0,34.2444085,-111.321310355711,1
1547,"Peoria, Arizona",AZ,2,0,33.5766205,-112.2398262,2
1548,"Phoenix, Arizona",AZ,84,16,33.361168,-112.121302167105,100
1549,"Pinion, Arizona",AZ,2,0,34.4613021,-114.3294255,2
1550,"Prescott, Arizona",AZ,1,0,34.5400242,-112.4685025,1
1551,"Prescott Valley, Arizona",AZ,2,0,34.6100243,-112.315721,2
1552,"Red Rock, Arizona",AZ,1,1,33.9600405,-111.4448576,2
1553,"Sahuarita, Arizona",AZ,1,0,31.929196,-110.976005859471,1
1554,"Scottsdale, Arizona",AZ,5,0,33.67421685,-111.856984035208,5
1555,"Seligman, Arizona",AZ,1,0,35.325492,-112.850903093832,1
1556,"South Tucson, Arizona",AZ,1,0,32.199521,-110.968425,1
1557,"Sun Lakes, Arizona",AZ,1,1,33.214802,-111.849762525559,2
1558,"Surprise, Arizona",AZ,1,0,33.6305938,-112.333216,1
1559,"Tempe, Arizona",AZ,4,0,33.4215792,-111.93264006500799,4
1560,"Tolleson, Arizona",AZ,1,0,33.4500497,-112.2593093,1
1561,"Tucson, Arizona",AZ,37,3,32.2217429,-110.926479,40
1562,"Tuscon, Arizona",AZ,2,0,32.11204655,-110.93472143826,2
1563,"Whippoorwill, Arizona",AZ,1,0,36.0211141,-110.1126224,1
1564,"Wickenburg, Arizona",AZ,1,0,33.9664865,-112.758793208041,1
1565,"Youngtown, Arizona",AZ,3,1,33.5939281,-112.3029362,4
1566,"Yuma, Arizona",AZ,6,1,32.7253249,-114.624397,7
1567,"Rainbow Valley, Arizona",AZ,0,1,33.2319897,-112.3871008,1
1568,"Sun City, Arizona",AZ,0,1,33.6290117,-112.2819368,1
1569,"Vernon, Arizona",AZ,0,1,34.2575429,-109.692878,1
1570,"Akron, Ohio",OH,14,2,41.0814447,-81.5190053,16
1571,"Alliance, Ohio",OH,1,1,40.9153362,-81.1059309,2
1572,"Ashtabula, Ohio",OH,1,0,41.8650534,-80.7898089,1
1573,"Ashtabula County, Ohio",OH,1,0,41.7167229,-80.74947,1
1574,"Athens, Ohio",OH,1,0,39.3231286,-82.0954219,1
1575,"Athens County, Ohio",OH,1,0,39.3231286,-82.0954219,1
1576,"Atwater, Ohio",OH,1,0,41.0239467,-81.163433,1
1577,"Avon, Ohio",OH,1,0,41.4517093,-82.0354225,1
1578,"Avondale, Ohio",OH,1,0,39.147837,-84.4949428,1
1579,"Barberton, Ohio",OH,1,1,41.012833,-81.6051221,2
1580,"Barberton , Ohio",OH,1,0,41.012833,-81.6051221,1
1581,"Beavercreek, Ohio",OH,1,0,39.771741,-84.0708363675497,1
1582,"Brook Park, Ohio",OH,1,0,41.3983838,-81.8045788,1
1583,"Brown County, Ohio",OH,1,2,38.9092542,-83.8836555,3
1584,"Cambridge, Ohio",OH,2,0,40.031183,-81.5884561,2
1585,"Canton, Ohio",OH,7,1,40.7989522,-81.3784445,8
1586,"Carey, Ohio",OH,1,1,40.9525551,-83.3824238,2
1587,"Celina, Ohio",OH,1,0,40.5489358,-84.5702338,1
1588,"Chester, Ohio",OH,1,0,39.0875777,-81.9226372,1
1589,"Cincinnati, Ohio",OH,43,4,39.1014537,-84.5124602,47
1590,"Clark County, Ohio",OH,1,0,39.9229676,-83.7905959,1
1591,"Cleveland, Ohio",OH,65,14,41.4871888,-81.6778691,79
1592,"Colerain Township, Ohio",OH,3,1,39.25825255,-84.6330661678433,4
1593,"College Hill, Ohio",OH,1,0,40.0409054,-81.6476246,1
1594,"Columbus, Ohio",OH,85,6,39.9622601,-83.0007065,91
1595,"Coshocton, Ohio",OH,1,0,40.2720151,-81.8595757,1
1596,"Coshocton County, Ohio",OH,2,0,40.2905684,-81.9271441,2
1597,"Crown City, Ohio",OH,1,0,38.5909166,-82.2829266,1
1598,"Dayton, Ohio",OH,26,7,39.7589478,-84.1916069,33
1599,"Decatur, Ohio",OH,1,0,38.8156269,-83.7038099,1
1600,"East Cleveland, Ohio",OH,1,0,41.5331066,-81.5790137,1
1601,"Edison, Ohio",OH,1,0,40.5575598,-82.862403,1
1602,"Elyria, Ohio",OH,2,0,41.3683798,-82.1076486,2
1603,"Euclid, Ohio",OH,1,0,41.5931049,-81.5267873,1
1604,"Evanston, Ohio",OH,1,0,39.1445039,-84.4693865,1
1605,"Fairborn, Ohio",OH,2,0,39.8066035,-84.01005793697479,2
1606,"Fairfax, Ohio",OH,1,0,39.1453377,-84.3932734,1
1607,"Fairfield, Ohio",OH,1,1,39.3458953,-84.5605031,2
1608,"Findlay, Ohio",OH,2,0,41.0442201,-83.6499321,2
1609,"Fulton County, Ohio",OH,1,0,41.6045817,-84.1141048,1
1610,"Gahanna, Ohio",OH,2,0,40.019468,-82.8790706,2
1611,"Gallia County, Ohio",OH,1,0,38.7952465,-82.3556216,1
1612,"Georgetown, Ohio",OH,1,0,38.8645138,-83.9040944,1
